city,country,lng,lat
's-Heerenberg,Netherlands,6.244592,51.874128000000006
's-Hertogenbosch,Netherlands,5.283178111764705,51.691532529411774
A Coruña,Spain,-8.358859999999998,43.3583155
A-Burg,Germany,9.10596811111111,49.943777555555556
Aabenraa,Denmark,9.416223,55.03997
Aachen,Germany,6.090199046511627,50.771962209302316
Aalborg,Denmark,9.928318366666666,57.062569493333335
Aalen,Germany,10.08730375,48.84177975
Aalsmeer,Netherlands,4.780021,52.255958
Aalst,Belgium,4.051574,50.94402066666667
Aalter,Belgium,,
Aarau,Switzerland,8.058721083333333,47.39436708333333
Aarhus,Denmark,10.183662885714286,56.164339142857145
Aarschot,Belgium,,
Aartselaar,Belgium,4.393584,51.148624
Aba,Nigeria,7.387904666666667,5.370827333333334
Abadiño,Spain,,
Abakaliki,Nigeria,8.093804999999998,6.327202333333333
Abakan,Russia,91.37542166666667,53.73728033333333
Abancay,Peru,-72.880504,-13.6341035
Abano Terme,Italy,11.8022445,45.35359750000001
Abashiri,Japan,144.239583,43.996724
Abbeville,United States,-92.13158299999999,29.975034
Abbiategrasso,Italy,8.930135,45.399392
Abbotsford,Australia,145.00757,-37.809073
Abbotsford,Canada,-122.32339340000001,49.0614567
Abbottabad,Pakistan,73.24787966666666,34.197544333333326
Abeokuta,Nigeria,3.3993168333333337,7.081767666666667
Abepura,Indonesia,140.657144,-2.604861
Abercynon,United Kingdom,-3.328546,51.641975
Aberdare,United Kingdom,-3.4992294999999998,51.7292865
Aberdeen,United Kingdom,-2.116237303030303,56.88591036363637
Aberdeen,United States,-95.30145599999999,43.739827
Aberdeen Proving Ground,United States,-76.20457366666666,39.45367433333333
Abergavenny,United Kingdom,-3.02022,51.826899499999996
Aberystwyth,United Kingdom,-4.0675324999999996,52.41470866666668
Abhā,Saudi Arabia,42.542086499999996,18.224641
Abidjan,Ivory Coast,-4.000877480645161,5.33487580967742
Abiko,Japan,140.0343,35.87344233333333
Abilene,United States,-99.38144071428572,33.37730885714286
Abingdon,United Kingdom,-1.2745681666666668,51.642602
Abingdon,United States,-81.95649700000001,36.711105
Abisko,Sweden,18.815755,68.354363
Abomey-Calavi,Benin,2.3514705,6.450914
Aborlan,Philippines,118.55887,9.443685
Abraka,Nigeria,6.0987,5.7917
Absam,Austria,11.517689,47.304386
Absecon,United States,-74.509265,39.417024
Abu Dhabi,United Arab Emirates,54.53722155555556,24.47649777777778
Abudwak,Somalia,46.223694,6.244861
Abuja,Nigeria,9.385777791666662,8.902778875
Aburi,Ghana,-0.088867,5.894051999999999
Abéché,Chad,20.819869,13.81812
Acapulco de Juárez,Mexico,-99.790725,16.990357
Accokeek,United States,-77.0360645,38.6776775
Accomac,United States,-75.750754,37.640726
Accra,Ghana,-0.20523914857142853,5.604894544285717
Accrington,United Kingdom,-2.3611185,53.7548505
Acharnes,Greece,23.7541455,38.1151495
Achern,Germany,8.039899,48.636505
Achim,Germany,9.055297999999999,53.010521
Ackerman,United States,-89.17286700000001,33.311007000000004
Ackley,United States,-93.052304,42.554235
Acquarossa,Switzerland,8.939979,46.530007
Acquaviva delle Fonti,Italy,16.803145999999998,40.863555
Acre,Israel,35.080559,32.939201499999996
Acton,Australia,149.5319212,-34.99867300000001
Acton,United States,-71.422223,42.522331
Ad Douiem,Sudan,32.305738,14.012637
Ad Dīwānīyah,Iraq,44.911265,32.009783
Ad-Damazin,Sudan,34.345062,11.786738
Ada,United States,-90.244811,37.770672000000005
Adamantina,Brazil,-51.0719155,-21.6863195
Adams,United States,-89.818149,43.963767
Adamstown,United States,-77.475363,39.311541999999996
Adamsville,United States,-86.931248,33.586334
Adana,Turkey,35.31905820000001,37.0156382
Adapazarı,Turkey,30.3628505,40.760709
Addingham,United Kingdom,,
Addis Ababa,Ethiopia,38.760569310344835,9.00855369310345
Addison,United States,-94.63308699999999,35.19703025
Addlestone,United Kingdom,-0.4913345,51.3619675
Adel,United States,-94.060414,41.713837
Adelaide,Australia,135.376275768116,-33.77599452753624
Adelaide,South Africa,26.294101,-32.7002
Adelanto,United States,,
Adelphi,United States,-76.9403048,38.995349600000004
Aden,Yemen,45.039156,12.812024000000001
Adilabad,India,77.953464,18.880254
Adjlun,Jordan,35.822739,32.397664
Ado-Ekiti,Nigeria,5.283697,7.639063666666666
Adrar,Algeria,-0.28665300000000005,27.891243
Adria,Italy,12.055792,45.058309
Adrian,United States,-84.02946460000001,41.9149178
Adıyaman,Turkey,38.231667,37.743889
Adūr,India,76.706325,9.16345
Affalterbach,Germany,,
Afgooye,Somalia,,
Afula,Israel,35.3043265,32.6373495
Afyonkarahisar,Turkey,30.535490000000003,38.80833
Agadir,Morocco,-9.564369249999999,30.413929
Agadir Melloul,Morocco,-9.502365,30.341967999999998
Agago,Uganda,33.371111,3.041111
Agartala,India,91.30206083333333,23.828172499999997
Agawam,United States,-72.634656,42.052392
Agen,France,0.6309925000000001,44.2012045
Ageo,Japan,139.596194,35.937944
Agno,Switzerland,8.90445,45.998365
Agogo,Ghana,-1.0713139999999999,6.794471000000001
Agoura Hills,United States,-118.76703200000001,34.151367
Agra,India,78.014397,27.1955878
Agrate Brianza,Italy,9.348687,45.584547
Aguadilla,United States,-67.137155,18.500423
Aguascalientes,Mexico,-102.29050149999999,21.8649075
Agudos,Brazil,-48.990487,-22.438102
Ahar,Iran,47.019038,38.454943
Ahlen,Germany,7.9033945,51.7629965
Ahmedabad,India,72.56294960810808,23.054720270270273
Ahmednagar,India,74.581294,19.380905
Ahoskie,United States,-77.022837,36.325439
Ahrensburg,Germany,10.236599,53.675987
Ahvāz,Iran,48.64834775,31.309127750000002
Aichach,Germany,11.13498,48.447983
Aigio,Greece,,
Aigle,Switzerland,6.942158,46.303785
Aigáleo,Greece,23.671999999999997,37.978
Aiken,United States,-81.74036559999999,33.5637396
Ainring,Germany,12.943988000000001,47.810867
Airdrie,United Kingdom,-3.9984260000000003,55.86639
Airport City,Israel,34.912187,31.986452000000003
Aix-en-Provence,France,5.411522993750001,43.514202725000004
Aizawl,India,92.70854433333334,23.755859333333333
Ajalvir,Spain,-3.48411,40.530412
Ajax,Canada,-79.027138,43.833288
Ajdovščina,Slovenia,13.8485656,45.9013402
Ajman,United Arab Emirates,55.479758600000004,25.398629800000002
Ajmer,India,74.7036055,26.499611166666668
Ajo,United States,-112.866175,32.372028
Akademgorodok,Russia,92.765065,55.988038
Akashi,Japan,134.94946042857143,34.67371971428571
Akhalts'ikhe,Georgia,43.011309000000004,41.639091
Akita,Japan,140.14658395238098,39.710673523809525
Akobo,South Sudan,33.000006,7.775947
Akola,India,76.870672,20.710538666666668
Akron,United States,-81.54243741666669,41.08948958333334
Akropong,Ghana,-0.089007,5.98082
Aksaray,Turkey,33.9761,38.326
Aksay,Russia,39.878188,47.355726000000004
Aksum,Ethiopia,38.40784,14.132438
Aktau,Kazakhstan,51.169226,43.681148
Aktobe,Kazakhstan,57.175976999999996,50.291746999999994
Akure,Nigeria,5.110679666666667,7.318846
Akureyri,Iceland,-18.1154206,65.68414800000001
Al Ain,United Arab Emirates,55.71238900000001,24.214628599999998
Al Bahah,Saudi Arabia,41.483608000000004,19.994839000000002
Al Bayḑā’,Libya,21.711956,32.759584000000004
Al Bukayrīyah,Saudi Arabia,43.731889,26.14174
Al Farwānīyah,Kuwait,48.030499,29.321696000000003
Al Fayyum,Egypt,30.835556,29.321111
Al Fūlah,Sudan,28.434071000000003,12.692215
Al Hillah,Iraq,44.397886,32.393867
Al Hudaydah,Yemen,42.957642,14.771567000000001
Al Hufūf,Saudi Arabia,49.577126500000006,25.3518685
Al Jahra,Kuwait,47.677209000000005,29.336637
Al Jubayhah,Jordan,35.896578999999996,31.989373999999998
Al Kharj,Saudi Arabia,47.271363,24.147241
Al Khums,Libya,13.907088,32.577906
Al Mafraq,Jordan,36.219,32.361
Al Mansurah,Egypt,31.393820249999997,31.14171375
Al Muharraq,Bahrain,50.598916,26.262105499999997
Al Qadmūs,Syria,36.187377000000005,35.098739
Al Qaţīf,Saudi Arabia,49.968219,26.524853000000004
Al Rayyan,Qatar,51.378802750000006,25.3167155
Al'met'yevsk,Russia,52.285865,54.896405
Al-Fashir,Sudan,25.32193,13.628407000000001
Al-Ubayyid,Sudan,30.237586999999998,13.205167999999999
Alabama,United States,-86.203454,32.3502735
Alabaster,United States,-86.81849414999999,33.24851015
Alachua,United States,-82.47651369230768,29.78248916923076
Alajuela,Costa Rica,-84.2769,10.0028
Alameda,United States,-122.26805358333331,37.769316999999994
Alamogordo,United States,-105.925919,32.920423
Alamosa,United States,-105.880496,37.471042
Alanya,Turkey,32.031918,36.548367
Alappuzha,India,76.34853299999999,9.408277
Alba Iulia,Romania,23.572409,46.069584000000006
Albacete,Spain,-1.82792946,38.89623346
Albano Laziale,Italy,12.664863,41.730990000000006
Albany,United States,-79.07909580340906,41.64578102613637
Albemarle,United States,-80.236734,35.339706
Albergaria-a-Velha,Portugal,-8.667112,40.604991999999996
Alberton,United States,-114.46446100000001,46.920711
Albertslund Municipality,Denmark,12.360769999999999,55.6618615
Albertson,United States,-73.6578785,40.7691105
Albi,France,2.142871385714286,43.92375267142857
Albion,United States,-84.746156,42.244541
Albizzate,Italy,,
Albrechtice,Czechia,18.516273,49.784886
Albstadt,Germany,9.0243114,48.2157668
Albufeira,Portugal,-8.314269,37.127095000000004
Albuquerque,United States,-106.51818025925928,35.12092907407407
Albury,Australia,146.937203,-36.073910999999995
Alcabideche,Portugal,-9.4046155,38.7338795
Alcalá de Henares,Spain,-3.35465925,40.50428275
Alcanena,Portugal,-8.668505,39.502393
Alcantarilla,Spain,-1.206512,37.973423
Alcester,United Kingdom,-1.8773830000000002,52.216708000000004
Alchevs'k,Ukraine,38.804125,48.471261
Alcobendas,Spain,-3.6369551428571425,40.52787742857142
Alcochete,Portugal,,
Alcorcón,Spain,-3.829371,40.345034999999996
Alcoy,Spain,-0.4709245,38.701469
Alcácer do Sal,Portugal,-8.551383,38.372389
Aldeburgh,United Kingdom,1.595533,52.152413
Aldeia de Paio Pires,Portugal,,
Aldergrove,Canada,-122.46638600000001,49.058091
Alderley Edge,United Kingdom,-2.236777,53.27044
Aldershot,United Kingdom,-0.7418403333333333,51.259802666666666
Aldrans,Austria,11.458046000000001,47.244788
Aledo,United States,-90.752279,41.207738
Aleppo,Syria,37.0879415,36.335378
Alessandria,Italy,8.6171294,44.9163778
Alexander City,United States,-85.94555799999999,32.925276000000004
Alexandria,Australia,151.204746,-33.910577
Alexandria,Egypt,29.96335613333333,31.098120400000003
Alexandria,Romania,,
Alexandria,United Kingdom,-4.590681,55.993030000000005
Alexandria,United States,-77.91081040170943,38.65871323076925
Alexandria Bay,United States,-77.978484,43.326827
Alexandroupoli,Greece,25.877823,40.8470515
Alfdorf,Germany,9.735941,48.844638
Alfenas,Brazil,-44.9568905,-20.609749
Alfianello,Italy,10.172089,45.281214
Alfortville,France,2.422625,48.812615
Alfred,United States,-77.7911125,42.2553945
Alfter,Germany,7.026973,50.745778
Algarrobo,Spain,-4.043501999999999,36.75712
Algiers,Algeria,3.048711217391305,36.74263886956522
Algonquin,United States,-88.365953,42.172855
Alguazas,Spain,,
Algés,Portugal,-9.2272395,38.715458
Alhambra,United States,-118.14568999999999,34.082456
Aliabad-e Katul,Iran,54.858813,36.909028
Alicante,Spain,-1.9835819230769227,37.45144630769231
Alice,South Africa,26.8475055,-32.780919
Alice,United States,-98.018478,27.782629999999997
Alice Springs,Australia,133.87591880000002,-23.6959728
Alice Town,Bahamas,-79.27629300000001,25.7025
Aligarh,India,78.02060166666666,27.826312
Alingsås,Sweden,12.544103999999999,57.924877
Aliquippa,United States,-80.251324,40.613901
Aliso Viejo,United States,-117.7284727,33.582149900000005
Aliwal North,South Africa,26.700662,-30.69435
Aljustrel,Portugal,,
Alkersum,Germany,8.502778999999999,54.729569999999995
Alkmaar,Netherlands,4.84185757142857,52.5113458
Allahabad,India,81.8665977,25.443972999999996
Allambie Heights,Australia,151.243273,-33.757385
Allauch,France,5.479873,43.326239
Allegan,United States,-85.834775,42.526641999999995
Allen,United States,-96.671137,33.106215999999996
Allen Park,United States,-83.198698,42.267953999999996
Allendale,United States,-83.59349950000001,37.987885000000006
Allendorf,Germany,8.6713845,51.025587
Allensbach,Germany,9.074526,47.71629299999999
Allentown,United States,-75.42270293749999,40.5647740625
Allevard,France,6.074799,45.391988
Alliance,United States,-81.106446,40.911789
Allison Park,United States,,
Alloa,United Kingdom,-3.3787279999999997,56.2927075
Allschwil,Switzerland,7.5463700000000005,47.558536000000004
Allègre,France,3.7155164,45.204568
Alma,Canada,-71.65218033333333,48.54769233333334
Alma,United States,-87.84617933333334,40.75402066666666
Almada,Portugal,-9.164024,38.674809
Almansa,Spain,-1.094164,38.879437
Almaty,Kazakhstan,76.92428853272729,43.25004761454545
Almeirim,Portugal,-8.6227865,39.208971500000004
Almelo,Netherlands,6.6485095,52.3482465
Almere Stad,Netherlands,5.238900769230769,52.35687284615385
Almería,Spain,-2.3262518,36.9490388
Almondsbury,United Kingdom,-2.567856,51.543382
Almora,India,79.64143933333332,29.611638666666664
Almussafes,Spain,-0.41987700000000006,39.313389
Alnwick,United Kingdom,-1.6840080000000002,55.152956999999994
Alofi,Niue,-169.920123,-19.054327999999998
Alor Star,Malaysia,100.5245495,5.867001999999999
Alpena,United States,-83.44877533333333,45.07390066666667
Alpharetta,United States,-84.25946358333333,34.073112583333334
Alphen aan den Rijn,Netherlands,4.653879,52.126636
Alpine,United States,-103.65,30.3635
Alsager,United Kingdom,-2.312907,53.095475
Alsip,United States,-87.7474735,41.67365100000001
Alsvåg,Norway,15.073018,68.907575
Alta,Norway,21.131518999999997,69.813408
Altadena,United States,-118.15264925,34.18745425
Altamira,Mexico,-97.87988399999999,22.325004999999997
Altamonte Springs,United States,-81.36007099999999,28.662951
Altdorf,Germany,11.601302,49.381429
Altenburg,Germany,12.439829,50.971703000000005
Altenholz,Germany,10.132558,54.402092
Altenkunstadt,Germany,11.244817,50.13132
Althofen,Austria,,
Alton,United Kingdom,-0.9888119,51.1545812
Alton,United States,-60.74744866666668,43.60140766666667
Altoona,United States,-78.407427,40.498375333333335
Altrincham,United Kingdom,-2.1116006,53.301040799999996
Alturas,United States,-120.545599,41.480652
Altus,United States,-99.337222,34.668889
Alva,United States,-98.668439,36.795987
Alvin,United States,-91.612122,36.2210065
Alwar,India,76.653999,27.544226
Alwernia,Poland,19.524667,50.053678000000005
Alytus,Lithuania,24.053272,54.3993505
Alzano Lombardo,Italy,9.725603999999999,45.731667
Alzenau in Unterfranken,Germany,9.050072499999999,50.090003499999995
Alès,France,4.089392,44.132234999999994
Amadora,Portugal,-9.2241436,38.7426334
Amagasaki,Japan,135.41555655555555,34.74295122222222
Amana,United States,-91.893417,41.800466
Amara,Iraq,47.173907,31.815949
Amarillo,United States,-101.8799078,35.19750861818182
Amarkantak,India,81.749344,22.806846
Amaro,Italy,12.133166,45.337041
Amasya,Turkey,35.805195,40.653737
Ambajogai,India,76.371707,18.731803
Ambala,India,77.045058,30.250764
Ambalangoda,Sri Lanka,,
Ambato,Ecuador,-78.90191966666667,-1.1736363333333333
Amberg,Germany,11.865806,49.45775266666667
Ambikāpur,India,83.1928,23.1122
Ambler,United States,-75.22164583333334,40.15699216666666
Ambleside,United Kingdom,-2.939498,54.352605000000004
Amboise,France,1.0258450000000001,47.41574
Ambon City,Ethiopia,37.844746,8.982655000000001
Ambon City,Indonesia,128.19461499999997,-3.677484
Ambridge,United States,-80.230456,40.593334000000006
Ambur,India,78.720033,12.778196000000001
Ambès,France,-0.599454,45.042332
Ambérieu-en-Bugey,France,,
American Fork,United States,-111.76887099999999,40.380392
Americana,Brazil,-47.33233266666667,-22.757430333333332
Americus,United States,-84.220596,32.08014433333333
Amersfoort,Netherlands,5.370866914285713,52.16480028285715
Amersham,United Kingdom,-0.6368894,51.66110260000001
Ames,United States,-93.64071075,42.02171625
Amethī,India,80.92408,26.849478
Amfissa,Greece,22.376372,38.52104
Amherst,United States,-76.71035241666665,42.337381
Amherst Center,United States,-72.51529699999999,42.37561485714286
Ami,Japan,140.22634,36.01825600000001
Amiens,France,2.2861484374999996,49.88875356249999
Amloh,India,76.24980199999999,30.626361000000003
Amman,Jordan,35.89373282926831,31.967025707317074
Ammanford,United Kingdom,-4.031746,51.780223
Ammāpettai,India,80.132673,12.742047
Amora,Portugal,-9.114867,38.617932
Amoy,China,118.12565957142856,24.533146285714288
Ampara,Sri Lanka,81.769653,7.2987705
Amparo,Brazil,-46.824932,-22.7197005
Amqui,Canada,-67.436564,48.470606
Amritsar,India,74.86511436,31.64197526
Amrāvati,India,77.57038399999999,21.096534249999998
Amstelveen,Netherlands,4.8435991000000005,52.2990985625
Amsterdam,Netherlands,4.841098665838511,52.366000409937875
Amsterdam,United States,-74.184954,42.940527
Amsterdam-Zuidoost,Netherlands,4.953267833333334,52.301060666666665
Amstetten,Austria,14.501491,48.156073
Amurrio,Spain,-3.001457,43.047537
Anaconda,United States,-112.957553,46.13282
Anacortes,United States,-122.615025,48.502094
Anadarko,United States,-98.24575099999998,35.0874825
Anagni,Italy,,
Anaheim,United States,-117.91458834666666,33.83546719333333
Anamosa,United States,-91.284684,42.10756
Anan,Japan,134.641732,33.913357500000004
Anand,India,72.8275735,22.737406333333336
Ananindeua,Brazil,-48.385473,-1.374675
Anantapur,India,77.61518633333333,14.648575
Anantnag,India,75.15186,33.736537
Anavyssos,Greece,23.904064,37.733809
Ancaster,Canada,-80.00037400000001,43.19521266666667
Anchorage,United States,-149.5620112428571,61.150710300000014
Ancona,Italy,13.456361375,43.550023624999994
Ancón,Panama,-79.543128,8.961016
Andahuaylas,Peru,-73.387888,-13.656001000000002
Andalusia,United States,-86.451234,31.321183
Andebu,Norway,10.133032,59.309141
Andelfingen,Switzerland,8.6852879,47.5938645
Andenes,Norway,16.059327333333332,69.30518333333333
Andernach,Germany,7.410963,50.4174235
Anderson,United States,-83.48941754545454,36.05452909090909
Andijan,Uzbekistan,72.33378833333332,40.819220666666666
Andong,South Korea,128.691402,36.6878115
Andover,United Kingdom,-1.4655808750000001,51.215786625
Andover,United States,-71.15535945454545,42.66517681818182
Andrews AFB CDP,United States,-76.896392,38.807969
Andria,Italy,16.303407,41.229732
Andrychów,Poland,19.3352595,49.8603785
Andrézieux-Bouthéon,France,4.2795,45.522556
Andújar,Spain,-4.030481,38.039875
Angamāli,India,76.41334599999999,10.220849000000001
Angarsk,Russia,103.879383,52.539083999999995
Ange-Gardien,Canada,-71.08984699999999,46.923939000000004
Angeles City,Philippines,120.5923205,15.1395765
Angered,Sweden,12.087846,57.781465000000004
Angers,France,-0.5606014736842105,47.47536652631578
Anglet,France,-1.509627,43.474358
Angleton,United States,-95.431788,29.154675
Angola,United States,-85.005556,41.632222
Angoulême,France,0.12016433333333333,45.656472666666666
Angra do Heroísmo,Portugal,-27.219795,38.668962
Angra dos Reis,Brazil,-44.395011,-22.948076999999998
Angwin,United States,-122.44963899999999,38.574090000000005
Anif,Austria,13.073789000000001,47.73261599999999
Anières,Switzerland,6.227459,46.278119000000004
Anjo,Japan,136.9506285,35.062437
Ankang,China,109.03087249999999,32.68796
Ankara,Turkey,32.811209082499985,39.91967778125
Ankaran,Slovenia,13.727054,45.58215
Ankeny,United States,-93.6067552,41.7119148
Anking,China,117.081175,30.528113499999996
Ann Arbor,United States,-83.73342965178574,42.27183489285714
Annaba,Algeria,7.718521000000001,36.86895
Annaberg-Buchholz,Germany,13.010516,50.586285
Annalong,United Kingdom,-5.896609,54.109632999999995
Annandale,United States,-78.89795593,39.47215885000001
Annapolis,United States,-76.51848512500003,38.98373978125001
Annecy,France,6.12137375,45.918996125
Annecy-le-Vieux,France,6.1596055,45.921058
Annemasse,France,6.2418830000000005,46.191008000000004
Anniston,United States,-85.83406033333331,33.649812000000004
Annville,United States,-76.541892,40.3805305
Anoka,United States,-93.4039745,45.212781
Ans,Belgium,,
Ansan-si,South Korea,126.84842350000001,37.311724125
Ansbach,Germany,10.577151,49.303897500000005
Anse Royale,Seychelles,55.51511800000001,-4.739004
Anseong,South Korea,127.3108344,37.0306232
Anshan,China,122.98511780000001,41.086235200000004
Anshun,China,105.89868999999999,26.250684999999997
Anstruther,United Kingdom,-2.697218,56.222768
Antakya,Turkey,36.160066,36.218799
Antalya,Turkey,30.6673295,36.90060575
Antananarivo,Madagascar,47.517749300000006,-18.898538000000002
Antibes,France,7.074077750000001,43.6072375
Antigonish,Canada,-61.988263499999995,45.623109
Antigua Guatemala,Guatemala,-90.735004,14.560395999999999
Antiguo Cuscatlán,El Salvador,-89.254868,13.681617000000001
Antioch,United States,-121.8572145,37.719242
Antofagasta,Chile,-70.40593,-23.665861333333336
Anton,Bulgaria,23.292277,42.701479
Antony,France,2.309858425,48.73999919999999
Antrim,United Kingdom,-6.1416598,54.69386899999999
Antsiranana,Madagascar,49.306374,-12.281873
Antwerp,Belgium,4.406726714285715,51.212134523809524
Anuradhapura,Sri Lanka,80.503262,8.363752
Anyang,China,114.3629814,36.0872298
Anyang-si,South Korea,126.94946182352942,37.40471188235295
Anzola dell'Emilia,Italy,,
Anápolis,Brazil,-49.022307500000004,-16.428687
Aomori,Japan,140.8173846153846,40.73942399999999
Aosta,Italy,7.313654666666667,45.73770533333334
Aouste-sur-Sye,France,5.0665629999999995,44.712238
Apartadó,Colombia,-76.632375,7.878458
Apatity,Russia,33.406178999999995,67.568519
Apeldoorn,Netherlands,5.964125222222222,52.209840111111106
Apex,United States,-78.87431833333333,35.748086
Apia,Samoa,-171.761202,-13.839870666666664
Apiro,Italy,13.120645999999999,43.347910999999996
Apizaco,Mexico,-98.120756,19.408304
Apolda,Germany,13.133288,52.095795
Apopka,United States,-81.491853,28.659652
Appenzell,Switzerland,9.409652,47.3311755
Apple Valley,United States,-105.1818465,39.63209
Appleby-in-Westmorland,United Kingdom,-2.489584,54.579402
Applecross,Australia,115.83748200000001,-32.012921999999996
Appleton,United States,-88.54372070000001,44.21050580000001
Aprilia,Italy,,
Apt,France,5.358696,43.885515000000005
Aptos,United States,-121.89536333333332,36.97003616666667
Ar Ramtha,Jordan,35.993819,32.501740000000005
Ar Rifā‘,Bahrain,50.567258,26.119387
Arab,United States,-86.16949699999999,34.201361
Aracaju,Brazil,-37.07212333333334,-10.932769666666665
Arad,Romania,21.314203000000003,46.176522
Arak,Iran,49.67690066666666,34.08988133333333
Aral,China,81.288895,40.546402
Aranjuez,Spain,-3.6110620000000004,40.056833000000005
Arar,Saudi Arabia,41.198987,30.859432
Araraquara,Brazil,-48.1792794,-21.792657600000002
Araras,Brazil,-47.38616033333333,-22.356946000000004
Araxá,Brazil,-46.8247515,-21.593966
Araçatuba,Brazil,-50.426516,-21.223747666666668
Arba Minch,Ethiopia,37.559813,6.065758
Arbon,Switzerland,9.402827,47.530141
Arbroath,United Kingdom,-2.6143175,56.553864000000004
Arcadia,United States,-110.7955782,32.75754499999999
Arcata,United States,-124.06112379999999,40.819464800000006
Archamps,France,6.117149,46.139216000000005
Archbold,United States,-84.30311999999999,41.452684000000005
Archidona,Ecuador,-77.862736,-0.949773
Arcola,United States,,
Arcueil,France,2.326843,48.809497666666665
Ardabil,Iran,48.288838,38.21720333333334
Ardahan,Turkey,42.780157,41.131673
Arden Hills,United States,-93.154972,45.04627
Ardmore,United States,-86.224067125,37.09707112499999
Ardooie,Belgium,3.1994740000000004,50.989292
Ardsley,United States,-73.85093950000001,41.005106999999995
Arecibo,United States,-66.747276,18.4087655
Arendal,Norway,8.734184058823528,58.450212058823524
Arequipa,Peru,-71.53922733333333,-16.403111
Aretxabaleta,Spain,,
Arezzo,Italy,11.87365225,43.47072025
Arganda,Spain,-3.471451,40.3055625
Argelato,Italy,,
Argenteuil,France,2.237014,48.945026
Argostoli,Greece,20.902641,37.76612
Argyle,United States,,
Ariano Irpino,Italy,15.133926999999998,41.199393
Arica,Chile,-70.3122575,-18.4761185
Ariel,Israel,35.209078999999996,32.10438
Arima,Trinidad and Tobago,-61.216667,10.616667
Arizona City,United States,-111.24865600000001,32.493583
Arkadelphia,United States,-92.80952549999999,34.127247999999994
Arkansas City,United States,-93.83635,35.280778749999996
Arkhangelsk,Russia,40.547883999999996,64.54498662499999
Arklow,Ireland,-6.161986,52.796578000000004
Arles,France,4.666805,43.508802
Arlesheim,Switzerland,7.591711999999999,47.49604
Arlington,United States,-78.44369667074234,38.49698981921399
Arlington Heights,United States,-87.07173673333334,42.004856733333334
Arlon,Belgium,5.820431,49.678004
Arluno,Italy,8.956738,45.501156
Armadale,United Kingdom,-5.871899,57.086932
Armagh,United Kingdom,-6.6518265,54.3527275
Armavir,Russia,41.1302465,44.99558424999999
Armenia,Colombia,-75.66139966666667,4.547712333333333
Armidale,Australia,151.65097066666667,-30.497159666666665
Armonk,United States,-73.57660533333335,40.99592366666667
Arnbruck,Germany,12.856154,49.174126
Arnhem,Netherlands,5.90848948611111,52.00374107499999
Arnold,United States,-87.4658245,38.83601725
Arnprior,Canada,-76.35073933333332,45.42873133333333
Arnsberg,Germany,8.018556499999999,51.425718
Arouca,Portugal,-8.547599,40.931266
Arqalyk,Kazakhstan,66.910938,50.25851
Arrah,India,84.65316,25.553015
Arraial do Cabo,Brazil,-42.0243425,-22.970755
Arraiján,Panama,,
Arras,France,2.7754185,50.28963850000001
Arrecife,Spain,-13.565913,28.973490999999996
Arroyo Grande,United States,-120.590725,35.113481
Arsanjān,Iran,53.320666,29.926840999999996
Arta,Greece,20.978203,39.150038
Artern,Germany,,
Artesia,United States,-118.0860855,33.864035
Artvin,Turkey,41.849488,41.198789
Arua,Uganda,30.927307,3.00926275
Arujá,Brazil,-46.334317,-23.39678
Arusha,Tanzania,36.729860625,-3.3739611249999997
Arvada,United States,-105.10589479999999,39.8098378
Arvika,Sweden,12.739117,59.53128100000001
Aryanah,Tunisia,10.165451714285714,36.881186571428564
As Samawah,Iraq,45.289776,31.338094
As Sālimīyah,Kuwait,48.0439685,29.3308805
Asaba,Nigeria,5.688745,5.998187000000001
Asadābād,Afghanistan,,
Asahi,Japan,140.63113700000002,35.721936
Asahikawa,Japan,142.37490633333334,43.77596166666666
Asaka,Japan,140.00589399999998,36.852339
Asan,South Korea,127.0226478,36.789027999999995
Asansol,India,87.1748445,23.6068875
Asbach,Germany,7.424415,50.668606
Asbury Park,United States,-74.010566,40.225221000000005
Aschau im Chiemgau,Germany,12.328016,47.782826
Aschersleben,Germany,11.5428265,51.746965
Aschheim,Germany,11.6818835,48.1473685
Ascot,United Kingdom,-0.6631565,51.409148
Ashbourne,United Kingdom,-1.7389860000000001,53.013863
Ashburn,United States,-77.3121888888889,38.79664788888889
Ashdod,Israel,34.789097,31.251069
Asheboro,United States,-79.80823466666665,35.67300633333333
Asheville,United States,-82.54729462068967,35.584788551724145
Ashfield,Australia,151.120797,-33.887256
Ashford,United Kingdom,0.540493,51.23637037499999
Ashgabat,Turkmenistan,58.37636916666668,37.92468238888889
Ashibetsu,Japan,142.166401,43.45993
Ashikaga,Japan,139.422214,36.346888500000006
Ashington,United Kingdom,-1.5591173333333332,55.185390000000005
Ashiya,Japan,135.3112445,34.742954
Ashland,United States,-94.80861571428572,40.9305365
Ashqelon,Israel,34.63565366666666,31.69218433333333
Ashtabula,United States,-80.80195905,41.87530925
Ashtarak,Armenia,44.345509,40.273922999999996
Ashtead,United Kingdom,-0.303345,51.304463
Ashton in Makerfield,United Kingdom,,
Ashton-under-Lyne,United Kingdom,-2.0808866666666668,53.490773999999995
Ask,Norway,11.035942,60.07173
Asker,Norway,10.47100637037037,59.83977737037038
Askim,Norway,11.169544333333333,59.58157566666666
Askola,Finland,,
Askvoll,Norway,4.890789,61.356970999999994
Askøy,Norway,5.1701440000000005,60.407090000000004
Asmara,Eritrea,38.92886,15.343461999999999
Asnières-sur-Seine,France,2.3172783333333338,48.916665
Aso,Japan,131.088661,32.962812
Asosa,Ethiopia,34.546895,10.061993
Aspen,United States,-106.8236235,39.194541
Assen,Netherlands,6.578981199999999,52.97099420000001
Assis,Brazil,-50.416187,-22.655855
Assiut,Egypt,31.172313000000003,27.187289
Asti,Italy,8.197073,44.91659
Astoria,United States,-95.31193857142856,43.08664671428571
Astrakhan,Russia,48.04597628571429,46.36200528571429
Asunción,Paraguay,-57.515704199999995,-25.144737050000003
Aswān,Egypt,32.8599,23.9989
Atami,Japan,139.079372,35.1065105
Atascadero,United States,-120.653864,35.355256
Atchison,United States,-95.111407,39.573189
Ath,Belgium,3.7604776666666666,50.65974033333333
Athabasca,Canada,-113.303386,54.722396999999994
Athens,Greece,23.294086281081096,38.014275677027044
Athens,United States,-83.78376260606059,34.971934454545455
Atherstone,United Kingdom,,
Atherton,United States,-122.19173899999998,37.4552925
Athis-Mons,France,2.385319,48.709634
Athlone,Ireland,-7.917124833333332,53.41960383333333
Atibaia,Brazil,-46.596140999999996,-23.112964
Atlanta,United States,-84.28662479786327,33.8321354440171
Atlantic Beach,United States,-81.514092,30.284275
Atlantic City,United States,-75.0935275,39.2615475
Atlantis,United States,-80.091095,26.600296
Atsugi,Japan,139.34522327272728,35.45222263636363
Attard,Malta,14.441787,35.891884999999995
Attleboro,United States,-71.30818149999999,41.9574615
Attleborough,United Kingdom,1.008292,52.52042
Atyrau,Kazakhstan,51.9269695,47.116103499999994
Aubagne,France,5.563294,43.291492
Aubange,Belgium,5.7835730000000005,49.562149
Aubenas,France,3.917435,43.605503999999996
Aubervilliers,France,2.377972666666667,48.90608533333333
Aubière,France,3.109231777777778,45.76191677777777
Aubonne,Switzerland,6.4103115,46.48347403333333
Auburn,Australia,151.0374905,-33.853365499999995
Auburn,United States,-94.18760844444445,39.658408407407414
Auburn Hills,United States,-83.2602665,42.71543441666666
Auchi,Nigeria,6.302101,7.133509500000001
Auckland,New Zealand,174.3596480890411,-36.8710308109589
Audubon,United States,-75.39839599999999,40.119475
Auerbach,Germany,,
Auffargis,France,1.8725509999999999,48.689238
Augsburg,Germany,10.891083266666666,48.36830973333334
Augusta,United States,-75.18437380487802,39.532704
Aulnay-sous-Bois,France,2.523466,48.954596
Aurangabad,India,75.43337716666667,19.879002499999995
Aurich,Germany,7.461289,53.4692
Aurillac,France,2.426739,44.909262
Aurlandsvangen,Norway,7.193103999999999,60.908738
Aurora,United States,-101.26131130769231,40.127069923076924
Auroville,India,79.811738,12.009656
Aursmoen,Norway,11.778295,60.00017
Austin,United States,-97.20091641342596,30.59331835925925
Autol,Spain,,
Auxerre,France,3.558479,47.806413
Avallon,France,4.077932,47.447282
Aveiro,Portugal,-8.636004125,40.63355
Avellino,Italy,14.792186666666668,40.917977666666665
Avenches,Switzerland,7.043288,46.88199
Aventura,United States,-80.14115183333332,25.966952833333334
Aversa,Italy,,
Aviano,Italy,12.564675999999999,46.063349
Avignon,France,4.93099925,43.925892
Avilés,Spain,-5.899958,43.552670000000006
Avinashi,India,77.31447,11.205639
Avon,United States,-88.16165475,40.93821275
Avon Lake,United States,-82.0338057,41.503009666666664
Avondale,United States,-87.967648,37.72488366666666
Awaji,Japan,134.900347,34.437014000000005
Awantipur,India,75.018367,33.925961
Awasa,Ethiopia,38.497355666666664,7.055315333333334
Awka,Nigeria,7.1646105,5.904272
Axbridge,United Kingdom,-2.908208,51.266339
Axminster,United Kingdom,-2.99157225,50.7854702
Ayacucho,Argentina,-58.395325,-34.602623
Ayacucho,Peru,-74.225863,-13.160827
Aydat,France,3.018724,45.720471
Aydin,Turkey,27.857197,37.854558499999996
Ayer,United States,-71.62341100000002,42.537896999999994
Aylesbury,United Kingdom,-0.7886531666666667,51.84981766666667
Aylesford,United Kingdom,0.49851599999999996,51.3053
Ayr,United Kingdom,-4.5826266,55.493751599999996
Ayutthaya,Thailand,100.482814,13.868464000000001
Az Zāwīyah,Libya,12.716667,32.75
Azcapotzalco,Mexico,-103.494026,20.727601999999997
Azkoitia,Spain,,
Azpeitia,Spain,,
Azua,Dominican Republic,-70.730135,18.456701000000002
Azusa,United States,-117.901524,34.127990800000006
Aßlar,Germany,8.456797,50.598138
Aïn Temouchent,Algeria,-1.122826,35.292518
Ağrı,Turkey,42.992228000000004,39.721882
Aţ Ţafīlah,Jordan,35.642744,30.841499
Baabda,Lebanon,35.536389,33.8375
Baar,Switzerland,8.520842375,47.187589125
Baardheere,Somalia,42.286087,2.3387189999999998
Baarn,Netherlands,5.265529,52.21656333333333
Babahoyo,Ecuador,-79.511444,-1.8009279999999999
Babol,Iran,52.68203066666666,36.54350566666667
Babson Park,United States,-81.532325,27.838797999999997
Babylon,United States,,
Bacau,Romania,26.914096999999998,46.554202000000004
Back Mountain,United States,-76.012222,41.308056
Bacolod City,Philippines,122.96209433333335,10.674237666666668
Bacolor,Philippines,120.655941,14.998026999999999
Bad Abbach,Germany,12.038016,48.931079
Bad Aibling,Germany,12.0249015,47.854891
Bad Bergzaben,Germany,7.999578,49.106517
Bad Berka,Germany,11.266374,50.889818
Bad Bevensen,Germany,10.58126125,53.08297645
Bad Bramstedt,Germany,9.880934,53.92075
Bad Dürkheim,Germany,8.210228,49.472057
Bad Elster,Germany,12.237237,50.285315999999995
Bad Ems,Germany,7.7238205,50.3413345
Bad Frankenhausen,Germany,11.11679,51.362026
Bad Gandersheim,Germany,9.967007,51.885038
Bad Gleichenberg,Austria,15.4072,47.0694
Bad Homburg,Germany,8.6405585125,50.272029162500004
Bad Honnef,Germany,7.221838333333333,50.64733266666667
Bad Ischl,Austria,13.604842999999999,47.709576
Bad Klosterlausnitz,Germany,11.860228999999999,50.91835
Bad Krozingen,Germany,7.701225999999999,47.907436
Bad Langensalza,Germany,10.656429,51.107966999999995
Bad Lauterberg im Harz,Germany,10.4814605,51.6367485
Bad Liebenzell,Germany,8.752353999999999,48.770825
Bad Lippspringe,Germany,8.812421,51.784744
Bad Mergentheim,Germany,9.6943625,49.444044
Bad Münstereifel,Germany,6.767455,50.562127000000004
Bad Nauheim,Germany,8.739231,50.366232999999994
Bad Neuenahr-Ahrweiler,Germany,7.126092333333333,50.542289333333336
Bad Neustadt an der Saale,Germany,10.226553666666668,50.32273566666667
Bad Oeynhausen,Germany,8.798548366666667,52.21201706666667
Bad Ragaz,Switzerland,9.499471,47.00188
Bad Reichenhall,Germany,12.88296,47.72797
Bad Saarow,Germany,14.064395999999999,52.284475
Bad Schussenried,Germany,9.665329,47.994124
Bad Segeberg,Germany,10.30729,53.94184
Bad Soden-Salmünster,Germany,8.503724,50.144040999999994
Bad Sooden-Allendorf,Germany,9.962677000000001,51.26639
Bad Säckingen,Germany,7.944977466666667,47.55590243333333
Bad Urach,Germany,9.399564999999999,48.493368
Bad Wildungen,Germany,9.085508,51.109097999999996
Bad Zurzach,Switzerland,8.291901,47.586012
Bad Überkingen,Germany,9.795802,48.600861
Badajoz,Spain,-6.7039302,39.0115368
Badalona,Spain,2.237600666666667,41.4755745
Baddi,India,76.824687,30.9138245
Baden,Switzerland,8.306718916666666,47.44901766666666
Baden bei Wien,Austria,16.2276235,47.9695615
Baden-Baden,Germany,8.2658734,48.8107674
Badhan,Somalia,48.327265000000004,10.703936
Badsey,United Kingdom,,
Badulla,Sri Lanka,81.076074,6.983322
Baesweiler,Germany,6.172779,50.918301
Baffa,Pakistan,73.248736,34.420142
Bagalkot,India,75.67242333333333,16.16904166666667
Baghdad,Iraq,44.36569933333332,33.31664233333333
Bagnes,Switzerland,7.149613,46.078669
Bagneux,France,2.2998598,48.818525
Bagnolet,France,2.416228333333333,48.864294666666666
Bagnols-sur-Cèze,France,4.6752975,44.14451175
Bagshot,United Kingdom,-0.694946,51.367471
Baguio City,Philippines,120.5965572,16.4066004
Bagé,Brazil,-54.1003635,-31.320232
Baharampur,India,88.259339,24.088998999999998
Bahawalpur,Pakistan,71.70793633333334,29.388006
Bahir Dar,Ethiopia,37.371497,11.575123666666665
Bahçelievler,Turkey,,
Bahía Blanca,Argentina,-62.253788,-38.68158975
Baicheng,China,122.837957,45.621933
Baidoa,Somalia,,
Baie-Comeau,Canada,-68.261616,49.1873
Baie-D'Urfé,Canada,-73.91860799999999,45.4164
Baierbrunn,Germany,,
Bainbridge,United States,-84.534012,30.903230999999998
Bainbridge Island,United States,-122.52739275000002,47.6424115
Bairnsdale,Australia,147.614684,-37.832674
Baise City,China,106.61232,23.891509
Baishan,China,126.322451,42.429558
Baishi,China,106.57200300000001,29.530762
Baiyin,China,104.172351,36.542428
Baj Baj,India,88.16699,22.465971
Baja,Hungary,18.9828135,46.182701
Bakau,Gambia,-16.671661999999998,13.467307
Baker City,United States,-117.8378715,44.7880265
Bakersfield,United States,-119.27954341666664,35.5443045
Bakewell,United Kingdom,-1.672422,53.218885
Bakhchisaray,Ukraine,33.860898999999996,44.747974
Baku,Azerbaijan,49.837277274509795,40.38633488235294
Bala-Cynwyd,United States,-75.22017333333334,40.009129333333334
Balakovo,Russia,47.771566,52.021419
Balanga,Philippines,120.44636200000001,14.738560999999999
Balashikha,Russia,37.960981333333336,55.799601333333335
Balasore,India,86.931944,21.491389
Balatonfüred,Hungary,17.895766000000002,46.955926
Baldock,United Kingdom,-0.17943599999999998,51.992857
Baldwin City,United States,-95.188948,38.778426
Baldwin Park,United States,-117.98083966666665,34.09045633333333
Balerna,Switzerland,9.015082,45.841276
Balestrand,Norway,6.281899,61.133965
Balgach,Switzerland,9.60651,47.400371
Balice,Poland,19.8015745,50.074636
Balikpapan,Indonesia,116.866735,-1.265142
Baliuag,Philippines,120.897798,14.953087
Balk,Netherlands,,
Ballabgarh ,India,77.317639,28.352748
Ballaghaderreen,Ireland,-8.5798798,53.901508299999996
Ballarat,Australia,143.8465455,-37.5674815
Ballerup Municipality,Denmark,12.3639451,55.73194170000001
Ballinasloe,Ireland,-8.234435000000001,53.326919
Ballston Spa,United States,-73.8497935,42.9856665
Ballwin,United States,-90.601023,38.585910999999996
Ballymena,United Kingdom,-6.2682625000000005,54.788123
Ballymun,Ireland,-6.263230999999999,53.39778100000001
Baloteşti,Romania,26.071794,44.603615999999995
Baltimore,United States,-76.63670282849162,39.309186137988824
Balzers,Liechtenstein,9.499986,47.068109
Balıkesir,Turkey,28.011584999999997,39.521671000000005
Bamako,Mali,-8.011591428571428,12.624033952380952
Bamberg,Germany,10.85509,49.89988357142857
Bamberg,United States,-81.028195,33.308131
Bambolim,India,73.857887,15.4646185
Bamenda,Cameroon,10.21559825,6.019291
Banbridge,United Kingdom,-6.2363859999999995,54.36645
Banbury,United Kingdom,-1.34774525,52.071328625
Banchory,United Kingdom,-2.520873,57.060963
Banda Aceh,Indonesia,95.344762,5.5443826000000005
Bandar Abbas,Iran,56.377101333333336,27.239874333333333
Bandar Būshehr,Iran,50.8293885,28.907495
Bandar Lampung,Indonesia,105.24490542857143,-5.383744857142857
Bandar Seri Begawan,Brunei,114.88492025,4.8746149999999995
Bandar-e Anzali,Iran,49.567873,37.460752
Bandar-e Māhshahr,Iran,49.172090000000004,30.564435999999997
Bandundu Province,Democratic Republic of the Congo,18.821753,-5.037509
Bandung,Indonesia,107.62312428571428,-6.91222432142857
Banepā,Nepal,85.527134,27.634543
Banff,Canada,-115.56896750000001,51.175456
Banff,United Kingdom,-3.238365,57.44384399999999
Bang Kruai,Thailand,100.505898,13.811076000000002
Bang Lamung,Thailand,101.002422,12.923539
Bangangté,Cameroon,10.524322999999999,5.1311029999999995
Bangkalan,Indonesia,112.722952,-7.126413
Bangkok,Thailand,100.72742153275865,13.806228453448274
Bangor,United Kingdom,-4.478607,53.50866988888888
Bangor,United States,-68.77222154545454,44.817665454545455
Bangued,Philippines,120.622836,17.599529999999998
Bangui,Central African Republic,18.5561965,4.383776
Banhā,Egypt,31.181666999999997,30.471110999999997
Banja Luka,Bosnia and Herzegovina,17.18865325,44.79349075
Banjarmasin,Indonesia,114.59792233333333,-3.3109203333333332
Banjul,Gambia,-16.634020916666664,13.457389083333334
Banner Elk,United States,-81.875396,36.161784999999995
Banning,United States,-116.82906000000001,33.952775
Bannockburn,United States,-87.882362,42.194340000000004
Bannu,Pakistan,70.700234,33.02888
Banqiao District,Taiwan,121.54721599999999,25.134752
Banská Bystrica,Slovakia,19.047141857142858,48.706754000000004
Banská Štiavnica,Slovakia,18.89118433333333,48.455080333333335
Bantengan,Indonesia,106.732351,-6.270295
Banting,Malaysia,101.506371,2.785979
Bantry,Ireland,-8.960843,51.797327
Banyuls de la Marenda,France,3.136374333333333,42.48065533333334
Banyuwangi,Indonesia,114.311024,-8.3200015
Banī Suwayf,Egypt,31.109285999999997,29.0654325
Baoding,China,115.4916562,38.87042265714285
Baohe,China,117.30014399999999,31.861835
Baoji,China,107.11135,34.358794
Baotou,China,109.901862,40.633258166666664
Baqa al-Gharbiyye,Israel,35.034006,32.42196
Baqubah,Iraq,44.522681,33.49119
Bar,Montenegro,19.089828,42.091678
Bar Harbor,United States,-68.20243237999999,44.508601719999994
Baraboo,United States,-89.74881875,43.50843925
Baraga,United States,-88.508833,46.779646
Barakaldo,Spain,-2.985616,43.285038333333326
Baranovichi,Belarus,26.038764999999998,53.127204000000006
Barbacena,Brazil,-43.770976,-21.221869
Barberton,United States,-81.58913199999999,41.014943
Barbourville,United States,-83.88808,36.87028
Barby,France,5.975233,45.566076
Barcarena,Portugal,-9.2783265,38.7393335
Barcelona,Spain,1.966559944968555,41.197355079245234
Barcelos,Portugal,-8.628132,41.537232
Barddhamān,India,87.85202799999999,23.243963
Bardstown,United States,-85.523436,37.862080999999996
Bareggio,Italy,8.997989,45.48999
Bareilly,India,79.45370625,28.364047
Barendrecht,Netherlands,4.513192,51.855098
Barga,Italy,10.467481,44.082795000000004
Bari,Italy,16.877180833333334,41.09860105185185
Bariloche,Argentina,-71.322286,-41.13609866666666
Barinas,Venezuela,-71.184587,7.824625999999999
Baripada,India,86.765662,21.930364
Barisāl,Bangladesh,90.361952,22.660053
Barkly East,South Africa,27.587359000000003,-30.968140999999996
Barleben,Germany,11.632214,52.203454
Barletta,Italy,,
Barnard,United States,-72.6189876,43.728679
Barnard Castle,United Kingdom,-1.917719,54.54689200000001
Barnaul,Russia,83.76859327272727,53.33392318181818
Barnegat,United States,-74.113752,39.742323999999996
Barnesville,United States,-84.15133900000001,33.047378
Barnetby le Wold,United Kingdom,,
Barneveld,Netherlands,5.070747000000001,52.043049499999995
Barneveld,United States,-89.89445500000001,43.015295
Barnham,United Kingdom,-0.647547,50.837410999999996
Barnsley,United Kingdom,-1.4928149999999998,53.548555125
Barnstable,United States,-70.4591275,41.7228505
Barnstaple,United Kingdom,-4.051102500000001,51.0921785
Baronissi,Italy,,
Barquisimeto,Venezuela,-67.13916433333334,9.469207333333332
Barra Mansa,Brazil,-44.170969,-22.548823000000002
Barranquilla,Colombia,-74.82236149999999,11.002469999999999
Barre,United States,-72.5058065,44.192350166666664
Barreiras,Brazil,-45.021865999999996,-12.148482000000001
Barretos,Brazil,-48.56812866666667,-20.570204666666665
Barrie,Canada,-79.64794075,44.3466485
Barrington,United States,-80.88067785714289,41.96982657142858
Barroso,Brazil,-42.638622999999995,-19.543925
Barrow,United States,-156.75403740000002,71.2938642
Barrow in Furness,United Kingdom,-3.2299337500000003,54.12300925
Barstow,United States,-117.0212285,34.88251100000001
Bartlesville,United States,-95.9633805,36.73235150000001
Bartlett,United States,-88.99330800000001,38.594342999999995
Barton,United Kingdom,0.260101,52.396892
Bartow,United States,-81.78863033333333,27.914840666666667
Bartın,Turkey,32.345837,41.600669
Barueri,Brazil,-46.85635125,-23.50388075
Barwāla,India,76.993953,30.507058
Barßel,Germany,7.750172999999999,53.166472999999996
Basalt,United States,-107.03500133333334,39.369434000000005
Basaluzzo,Italy,,
Basauri,Spain,-2.886189,43.229102000000005
Bascharage,Luxembourg,,
Basehor,United States,-94.938847,39.117343
Basel,Switzerland,7.633326521276593,47.546708031914875
Basiglio,Italy,9.152727,45.354457000000004
Basildon,United Kingdom,0.44940449999999993,51.56659075
Basiliano,Italy,,
Basingstoke,United Kingdom,-1.0508800625,51.283982749999986
Basra,Iraq,47.789826600000005,30.514084000000004
Bassano Bresciano,Italy,10.127044,45.327172
Bassano del Grappa,Italy,11.744648,45.747451
Bassersdorf,Switzerland,8.61787,47.444672499999996
Basseterre,Saint Kitts and Nevis,-62.74816666666667,17.295266666666667
Bastia,France,9.451982000000001,42.698946
Bat Yam,Israel,34.752922999999996,32.0270745
Batac City,Philippines,120.520889,18.065026
Batalha,Portugal,-8.824338000000001,39.659571
Batam,Indonesia,104.01072574999999,1.08009175
Batangas,Philippines,121.0560745,13.759265000000001
Batatais,Brazil,-47.545043666666665,-20.77371533333333
Batavia,United States,-83.843336875,41.434974625
Batesville,United States,-90.02482325000001,36.660562
Bath,United Kingdom,-2.3800780666666657,51.37090996666668
Bath,United States,-69.81721350000001,43.9017535
Bathgate,United Kingdom,-3.5979271999999995,55.87503445
Bathinda,India,74.97193275000001,30.12021025
Bathurst,Australia,149.562294,-33.431692999999996
Bathurst,Canada,-65.651443,47.620929
Batley,United Kingdom,-1.6430200000000001,53.709405000000004
Batman,Turkey,41.064372999999996,37.791234
Batna City,Algeria,6.151929,35.537372
Batnfjordsøra,Norway,7.678657,62.894
Baton Rouge,United States,-90.91456499824562,30.59135585964912
Battagram,Pakistan,73.119742,34.82563
Battalgazi,Turkey,38.356032,38.46346
Battambang,Cambodia,103.219771,13.086313
Battaramulla South,Sri Lanka,79.92478449999999,6.896164499999999
Batticaloa,Sri Lanka,81.63484700000001,7.75131
Battle Creek,United States,-85.18083825,42.325061375
Battle Ground,United States,,
Batu Pahat,Malaysia,103.085535,1.8586049999999998
Batumi,Georgia,41.6686745,41.6710375
Baturaja,Indonesia,104.175788,-4.134583
Bau-Bau,Indonesia,122.603229,-5.4583224999999995
Bauchi,Nigeria,9.845355,10.32977
Baudette,United States,-94.602144,48.712662
Baulkham Hills,Australia,150.9623375,-33.732052499999995
Bauru,Brazil,-49.04911216666667,-22.32871233333334
Bautzen,Germany,14.429029000000002,51.175469
Bay City,United States,-83.91632716666668,43.581053833333335
Bay Minette,United States,-87.78,30.85
Bay Pines,United States,-82.77819366666665,27.811588
Bay Saint Louis,United States,-89.607018,30.363345
Bay Shore,United States,-73.24633066666667,40.724154666666664
Bayamo,Cuba,-76.632751,20.371604
Bayamon,United States,-66.16948025,18.3925895
Bayamón,United States,-66.15309925,18.38343575
Bayannur,China,107.4355,40.769162
Baybay,Philippines,124.79194199999999,10.744652
Bayburt,Turkey,40.22083000000001,40.2584555
Bayfield,United States,-107.598951,37.233648
Bayombong,Philippines,121.1498265,16.4818565
Bayonne,France,-1.4749984999999999,43.487689
Bayonne,United States,-74.129479,40.6583
Bayport,United States,-92.77885649999999,45.0226045
Bayreuth,Germany,11.590081777777778,49.960754400000006
Bayside,United States,-73.76964749999999,40.770088
Bayswater,Australia,145.260491,-37.8398035
Baytown,United States,-94.9779955,29.750656999999997
Bağcılar,Turkey,28.871197,41.030294
Beachwood,United States,-81.50138916666667,41.4697555
Beaconsfield,United Kingdom,-0.633291,51.6316665
Beasain,Spain,-2.188927,43.049478
Beatrice,United States,-96.731764,40.267277
Beauchamp,France,2.174985,49.016738000000004
Beaucouzé,France,-0.6137020000000001,47.477414
Beaufort,United States,-79.1277844,33.3179284
Beaumont,United States,-94.11306266666666,30.06166466666667
Beauvais,France,2.0839383333333332,49.44346633333333
Beauvoir-sur-Niort,France,-0.425795,46.146701
Beauzac,France,3.166631,45.849021
Beaver,United States,-80.2787215,40.76006700000001
Beaver Falls,United States,-80.30994749999999,40.734446500000004
Beavercreek,United States,-84.058043,39.73661033333333
Beaverton,United States,-122.41082421428571,44.58706
Bebington,United Kingdom,-3.0165759999999997,53.3428715
Beccles,United Kingdom,1.561456,52.454143
Bechem,Ghana,-2.030363,7.085739
Becker,United States,,
Bedford,United Kingdom,-0.5517498124999999,52.187371
Bedford,United States,-72.41617628333334,42.04545251333333
Bedford Hills,United States,-73.70054499999999,41.236133
Bedford Park,Australia,138.56870375000003,-35.0216895
Bedminster,United States,-74.81251566666667,40.58005933333334
Bedong,Malaysia,100.48025600000001,5.721759
Beech Grove,United States,-86.09033000000001,39.720385
Beelitz,Germany,12.968742500000001,52.269224
Beernem,Belgium,3.688736,51.0908
Beerse,Belgium,4.875338,51.307456
Beersel,Belgium,4.270613,50.758206
Beersheba,Israel,34.792966,31.2584088
Beeston,United Kingdom,-1.176591,52.926875
Beetsterzwaag,Netherlands,6.073729,53.059288
Beeville,United States,-97.75664300000001,28.435291999999997
Behshahr,Iran,53.048432999999996,36.780783
Beihai,China,109.13629700000001,21.470124666666663
Beijiao,China,113.20716499999999,22.928957
Beijing,China,116.37093318533755,39.90062061837486
Beijinglu,China,116.2844034,40.041639
Beilen,Netherlands,6.521287999999999,52.873746
Beira,Mozambique,34.87721333333334,-19.83658
Beirut,Lebanon,35.531199869565214,33.8757499347826
Beja,Portugal,-7.864369750000001,38.01250175
Bekasi,Indonesia,107.088165,-6.2707715
Bel Air,United States,-76.357895,39.492813749999996
Bel Air North,United States,-76.315275,39.546889
Belconnen,Australia,149.06684133333334,-35.208020000000005
Belcourt,United States,-99.748436,48.861418
Belfast,United Kingdom,-5.917949292134833,54.596914078651686
Belfast,United States,-68.9831975,44.43106675
Belford Roxo,Brazil,-43.442319,-22.750628
Belfort,France,6.856105599999999,47.6205048
Belgaum,India,74.55968912499999,15.833308625
Belgorod,Russia,36.5668685,50.585332125
Belgrade,Serbia,20.45299125737705,44.80942406721311
Belgrade,United States,-111.175242,45.777638
Belinsky,Russia,60.619069999999994,56.82266
Belize City,Belize,-88.36735533333335,17.48789
Bellaire,United States,-95.454531,29.700823
Bellary,India,76.8867925,15.153319499999998
Belle Chasse,United States,-90.002957,29.845537
Belle Haven,United States,,
Belle Plaine,United States,-93.757113,44.62253
Belleair Beach,United States,,
Bellefonte,United States,-77.83605175,40.84318375
Belleville,Canada,-76.89034433333333,44.44637333333333
Belleville,United States,-83.58676771428573,40.227409285714295
Bellevue,United States,-121.19496418518519,47.37427940740741
Bellflower,United States,-118.124623,33.886900999999995
Bellignat,France,5.630869000000001,46.25124
Bellingen,Australia,152.89889,-30.451629999999998
Bellingham,United States,-122.50986074999997,48.76154708333333
Bellinzona,Switzerland,9.022634705882355,46.19394894117647
Bellmund,Switzerland,7.253589,47.118005
Bellshill,United Kingdom,-4.034838,55.827144999999994
Belmont,Australia,133.79403050000002,-32.4838125
Belmont,United States,-87.38127070588236,40.13580664705883
Belmopan,Belize,-89.00891999999999,17.207817000000002
Belo Horizonte,Brazil,-44.116008137254894,-19.97822737254902
Beloeil,Canada,-73.22408899999999,45.60624850000001
Beloit,United States,-89.03094899999999,42.503081
Belper,United Kingdom,-1.485262,53.018879000000005
Beltangadi,India,75.379448,12.952237
Belton,United States,-96.48829566666666,33.648192
Beltsville,United States,-76.90431400000001,39.05521600000001
Belvaux,Luxembourg,5.948937,49.50193
Belvedere Tiburon,United States,-122.45686,37.886891
Belvidere,United States,-93.083652,36.218559
Belém,Brazil,-48.846834941176475,-1.4683691764705882
Bemidji,United States,-94.87798800000002,47.45854475
Ben Arous,Tunisia,10.232232666666667,36.755069
Ben Lomond,United States,-122.08928200000001,37.091865999999996
Benavente,Portugal,-8.801772,39.002125
Bend,United States,-121.31221236363636,44.0517829090909
Bendigo,Australia,144.2955445,-36.73076525
Benediktbeuern,Germany,11.404564,47.707143
Benevento,Italy,14.7897265,41.124192
Benešov,Czechia,14.769162166666668,49.74788916666666
Bengaluru,India,77.60431710140845,12.987946277464793
Bengbu,China,117.39933599999999,32.92934425
Benghazi,Libya,20.079769,32.06674266666667
Bengkulu,Indonesia,102.25519040000002,-3.7127192
Benguela,Angola,13.405839000000002,-12.5714
Beni,Democratic Republic of the Congo,29.491965999999998,0.530389
Beni Mellal,Morocco,-6.369366,32.335815000000004
Benicia,United States,-122.12564200000001,38.07259
Benidorm,Spain,-0.12908599999999998,38.543388
Benin City,Nigeria,5.609544666666667,6.336838666666668
Benito Juarez,Mexico,-99.1300455,19.386380000000003
Benito Juárez,Mexico,-99.02581566666667,19.622015
Bennekom,Netherlands,,
Bennett,United States,-104.411438,39.696452
Bennettsville,United States,-79.69739,34.633247999999995
Bennewitz,Germany,12.64638,51.349488
Bennington,United States,-73.2079692,42.8910038
Benoni,South Africa,28.344874,-26.116543
Bensenville,United States,-87.935854,41.9695955
Bensheim,Germany,8.603389499999999,49.681493
Benson,United States,-110.07864099999999,32.045564
Bensonville,Liberia,-10.696242999999999,6.271732
Bentleigh,Australia,145.06290800000002,-37.920409
Bentley,Australia,115.8952215,-32.010253000000006
Bento Gonçalves,Brazil,-51.513635,-29.168389
Benton,United States,-93.747109,32.683448999999996
Benton Harbor,United States,-86.4174165,42.1185565
Bentonville,United States,-94.19762766666668,36.365946
Benwell,United Kingdom,-1.661377,54.970220999999995
Benátky nad Jizerou,Czechia,14.829332999999998,50.290107
Beppu,Japan,131.4827554,33.320772
Berck,France,1.565324,50.415825
Berdyans'k,Ukraine,36.800545,46.773544
Berea,United States,-83.8936685,38.23113433333333
Berehove,Ukraine,22.636864000000003,48.199046
Berekum,Ghana,-2.587925,7.443069
Berezniki,Russia,56.807614,59.43178399999999
Berg,Switzerland,9.177324,47.578401
Bergamo,Italy,9.654321019999998,45.69044241
Bergara,Spain,,
Bergedorf,Germany,,
Bergen,Norway,5.318726624,60.30687483199998
Bergen op Zoom,Netherlands,4.3001403,51.4909283
Bergenfield,United States,-73.99961333333333,40.922519666666666
Bergheim,Germany,6.652621000000001,50.938928000000004
Bergisch Gladbach,Germany,7.160315000000001,50.957418
Bergneustadt,Germany,7.650809,51.018609999999995
Beringen,Belgium,,
Beringen,Switzerland,8.574233999999999,47.694229
Berkel en Rodenrijs,Netherlands,,
Berkeley,United Kingdom,-2.458266,51.7044425
Berkeley,United States,-121.94312488073393,37.83674589908257
Berkeley Heights,United States,-74.4173134,40.662533350000004
Berkeley Lake,United States,-84.338139,33.762883
Berkeley Springs,United States,-78.227345,39.627144
Berkeley Vale,Australia,151.41129899999999,-33.328525
Berkhamsted,United Kingdom,-0.5706873333333333,51.76630433333333
Berlin,Germany,13.508389548210534,52.4141999387369
Berlin,United States,-74.0604405,40.607512
Bermatingen,Germany,9.341835000000001,47.737636
Bern,Switzerland,7.432171831250001,46.945159535625024
Bernal,Argentina,-58.2775,-34.706666999999996
Bernalillo,United States,-106.696726,34.906095
Bernardsville,United States,-74.57824699999999,40.746162
Bernartice,Czechia,17.079717000000002,50.393577
Bernau bei Berlin,Germany,13.582054999999999,52.683564000000004
Bernburg,Germany,11.722466333333335,51.81029366666667
Bernin,France,5.877696,45.264035
Beroun,Czechia,14.1584975,49.896325250000004
Berrien Springs,United States,-86.35861700000001,41.964588
Berryville,United States,-78.03225,39.072583
Bersenbrück,Germany,7.937854,52.558202
Bertem,Belgium,,
Berthoud,United States,-105.102507,40.30485
Bertrange,Luxembourg,6.048405000000001,49.611911
Berwick,Australia,145.344961,-38.045374
Berwick-Upon-Tweed,United Kingdom,-2.004781,55.770966
Berwyn,United States,-79.57591133333334,40.65435433333332
Besançon,France,5.999470115384616,47.246648961538455
Besigheim,Germany,9.149875,48.996131
Beslan,Russia,43.594439,43.484615000000005
Bessines-sur-Gartempe,France,,
Bet Dagan,Israel,34.908638,32.4395
Bet Shean,Israel,35.515221999999994,32.443203999999994
Bethany,United States,-87.20531999999999,38.168175000000005
Bethel,United States,-104.50904233333335,47.84937433333334
Bethel Park,United States,-80.041421,40.328649
Bethesda,United States,-77.10314127397261,39.00242623972603
Bethlehem,Palestinian Territory,35.20177771428571,31.703615142857142
Bethlehem,United States,-75.37810969230769,40.625453692307694
Bethpage,United States,-72.91824225,41.1585615
Betim,Brazil,-44.196418,-19.969494
Bettendorf,United States,-90.49574123333333,41.544687100000004
Bettlach,Switzerland,7.429952,47.196526000000006
Betzdorf,Luxembourg,6.330796,49.694358
Betzenweiler,Germany,9.56884,48.11939
Bevaix,Switzerland,6.8070759999999995,46.919778
Beverley,United Kingdom,-0.38697800000000004,53.914816
Beverly,United States,-70.88697773913043,42.562017695652166
Beverly Cove,United States,-70.86607425,42.554246750000004
Beverly Hills,United States,-118.3919659583333,34.05669687500001
Beverwijk,Netherlands,4.65202,52.479878
Bewdley,United Kingdom,-2.3115475,52.37353400000001
Bexbach,Germany,7.257371000000001,49.332176000000004
Bexhill-on-Sea,United Kingdom,0.469784,50.8439745
Bexley,United States,-82.937745,39.962045
Bezannes,France,4.001139,49.214116
Bezhanitsy,Russia,29.876771999999995,56.976815
Bezons,France,2.221059,48.924587
Bełchatów,Poland,19.389229,51.366896999999994
Bhaktapur,Nepal,85.464965,27.6657895
Bhamo,Myanmar,,
Bharatpur,India,77.457166,27.199196999999998
Bharatpur,Nepal,84.391108,27.6591802
Bharūch,India,73.150318,21.713024
Bhavnagar,India,72.141165,21.76346125
Bhilai,India,81.4908545,21.1786045
Bhisho,South Africa,27.4256265,-32.8530325
Bhopal,India,77.40497488888889,23.241880555555554
Bhubaneswar,India,85.80619941923077,20.27419695384615
Bhuj,India,69.656085,23.22221433333333
Biak,Indonesia,136.084134,-1.1672120000000001
Bianzè,Italy,,
Biała Podlaska,Poland,23.158911,52.023721
Białowieża,Poland,23.849956,52.704218000000004
Białystok,Poland,23.15579464285714,53.12412707142857
Bibbiena,Italy,11.821759,43.675290000000004
Biberach an der Riss,Germany,9.7884075,48.097703499999994
Bicester,United Kingdom,-1.16784975,51.852760249999996
Bida,Nigeria,6.010337,9.079506
Bidar,India,77.480192,17.867689000000002
Bidart,France,-1.552982,43.446539
Biddeford,United States,-70.44590566666666,43.476968
Bideford,United Kingdom,-4.2071325,51.0090335
Biedenkopf,Germany,8.535956,50.903844
Biederitz,Germany,11.730052,52.139461
Biel/Bienne,Switzerland,7.243210699999999,47.1394243
Bielefeld,Germany,8.5319536,52.009661400000006
Biella,Italy,8.0608045,45.5560285
Bielsko-Biala,Poland,19.043157555555553,49.81614122222223
Bienenbüttel,Germany,10.485329,53.14427239999999
Bierne,France,2.415135,50.958436999999996
Bieruń,Poland,19.080745,50.079060999999996
Bietigheim-Bissingen,Germany,9.1414186,48.948406600000006
Big Bear Lake,United States,-116.8883656,34.2464722
Big Pine Key,United States,-81.373223,24.65237
Big Rapids,United States,-85.48102949999999,43.69569425
Big Spring,United States,-101.451139,32.250825
Big Stone Gap,United States,-82.759497,36.856151000000004
Biggleswade,United Kingdom,-0.24753699999999998,52.099556
Bihać,Bosnia and Herzegovina,15.869172,44.81416
Bijapur,India,75.68990120000001,16.8390384
Bijeljina,Bosnia and Herzegovina,18.853840333333334,44.76353066666667
Bijnor,India,78.140514,29.380428000000002
Bikaner,India,73.32069166666666,28.035700333333335
Bila Tserkva,Ukraine,30.111292,49.791515999999994
Bilaspur,India,82.155545,22.104522499999998
Bilbao,Spain,-2.9345859375,43.262833875
Bilecik,Turkey,29.968866,40.189046999999995
Billerbeck,Germany,7.263178999999999,51.986984
Billerica,United States,-71.26176427777779,42.53967794444445
Billericay,United Kingdom,0.405019,51.621796999999994
Billingham,United Kingdom,-1.2728385,54.5950405
Billings,United States,-108.33963466666668,45.45858716666667
Billingsfors,Sweden,12.240604,58.976913
Billingshurst,United Kingdom,-0.45018100000000005,51.014802
Billingstad,Norway,10.492260625,59.874662
Billund,Denmark,9.122318,55.733049
Biloxi,United States,-88.92402283333332,30.43276633333333
Bilāspur,India,,
Binche,Belgium,4.165996,50.409513000000004
Bindura,Zimbabwe,31.192451999999996,-17.5560265
Binfield,United Kingdom,-0.785814,51.425025
Bingen am Rhein,Germany,7.923979,49.953030999999996
Bingham Farms,United States,-83.308367,42.509523333333334
Binghamton,United States,-75.9295246923077,42.10920161538461
Bingley,United Kingdom,-1.8608968000000001,53.8500745
Bingöl,Turkey,40.486822,38.903094
Binningen,Switzerland,7.614159666666667,47.536078866666664
Binzhou,China,118.0329951,37.39911082857143
Bioggio,Switzerland,8.9122555,46.018358000000006
Biot,France,7.081753333333334,43.62123166666667
Biratnagar,Nepal,87.31212049999999,26.5507775
Birchington,United Kingdom,1.3144719999999999,51.366602
Birendranagar,Nepal,81.62310699999999,28.589826000000002
Bireun,Indonesia,96.787181,5.196102
Birjand,Iran,59.24848866666667,32.85359933333333
Birkenfeld,Germany,8.578494000000001,48.924565
Birkenhead,United Kingdom,-3.04353875,53.384299750000004
Birkenwerder,Germany,13.298378,52.691120999999995
Birkerød,Denmark,12.4352215,55.848162
Birmensdorf,Switzerland,8.4549,47.3604
Birmingham,United Kingdom,-1.908350077192982,52.486554918421064
Birmingham,United States,-85.05628949542789,34.01836027128845
Birnin Kebbi,Nigeria,4.3440715,12.3709195
Birobidzhan,Russia,132.926082,48.7886615
Birsfelden,Switzerland,7.631071,47.545051
Birštonas,Lithuania,24.028023,54.60649
Bisbee,United States,-109.90436199999999,31.43446296666667
Bisceglie,Italy,,
Bisha,Saudi Arabia,42.612949,20.028242000000002
Bishan,China,106.223297,29.587802000000003
Bishkek,Kyrgyzstan,74.60069364193546,42.86101722903226
Bishnupur,India,87.08527,23.276836
Bishoftu,Ethiopia,38.999083,8.766819
Bishop,United States,-117.89670633333333,37.079986999999996
Bishop Auckland,United Kingdom,-1.6960907999999997,54.6612752
Bishop's Castle,United Kingdom,-3.001147,52.493694999999995
Bishop's Stortford,United Kingdom,0.167848,51.868647
Biskra,Algeria,5.7453415,34.846942
Bismarck,United States,-100.76349294117648,46.81072211764705
Bissau,Guinea-Bissau,-15.542708166666666,11.9084755
Bitlis,Turkey,42.163207,38.478858
Bitola,North Macedonia,21.314722,41.031944
Bitou,Taiwan,120.4949,23.8705
Bitterfeld-Wolfen,Germany,12.3122885,51.6371405
Biysk,Russia,85.166677,52.516673
Bizana,South Africa,29.857628000000002,-30.861521999999997
Bièvres,France,5.681819,45.244732
Biên Hòa,Vietnam,107.10024200000001,11.220756000000002
Bjerringbro,Denmark,9.666447,56.3837385
Bjuv,Sweden,12.941824,56.074951
Bjæverskov,Denmark,12.032933,55.457322999999995
Blackburn,United Kingdom,-2.4304174499999998,53.75845041666667
Blackpool,United Kingdom,-3.029571333333333,53.83279583333333
Blackrock,Ireland,,
Blacksburg,United States,-80.41153178653565,37.21137437829223
Blacktown,Australia,150.9133485,-33.773725
Blackwood,United Kingdom,-3.165155,51.685028
Blackwood,United States,-75.038352,39.785033
Blacon,United Kingdom,-2.8974830000000003,53.200687
Bladenboro,United States,-79.151166,34.87056
Bladensburg,United States,-76.94132900000001,38.942209000000005
Blaenavon,United Kingdom,-3.087954,51.773294
Blagnac,France,1.3751753333333332,43.63100033333333
Blagoevgrad,Bulgaria,23.090372666666667,42.016182666666666
Blagoveshchensk,Russia,128.12751788888892,50.10736022222223
Blaichach,Germany,10.159446,47.649878
Blaine,United States,-122.75001100000001,48.990239
Blainville,Canada,-73.87089600000002,45.669767666666665
Blairgowrie,United Kingdom,-3.3315900000000003,56.584897999999995
Blairsville,United States,-83.962,34.885
Blanchardstown,Ireland,-6.3704374999999995,53.3937365
Blandford Forum,United Kingdom,-2.163843,50.866534
Blanes,Spain,2.8002689999999997,41.683203000000006
Blankenfelde-Mahlow,Germany,13.439759,52.311553
Blansko,Czechia,16.653223866666668,49.37917806666667
Blantyre,Malawi,35.07216307142857,-15.820739314285715
Blaricum,Netherlands,5.2075,52.2675
Blatná,Czechia,13.880786333333335,49.42395966666667
Blaubeuren Abbey,Germany,9.785757,48.401353
Bled,Slovenia,14.109337,46.371009
Blenheim,New Zealand,173.960615,-41.51389
Bletchley,United Kingdom,-0.7204510000000001,52.003453
Blida,Algeria,2.875901,36.504766
Blitar,Indonesia,112.183829,-8.098503
Bloemendaal,Netherlands,4.620462,52.404026
Bloemfontein,South Africa,26.198899599999997,-29.115072000000005
Blois,France,1.325647,47.585314000000004
Blomberg,Germany,9.096384,51.941559999999996
Bloomfield,United States,-75.825599,41.820388
Bloomfield Hills,United States,-83.2613795,42.57739840000001
Bloomingdale,United States,-83.50985233333333,41.63669133333334
Bloomington,United States,-89.12367317391306,41.1891685
Bloomsburg,United States,-76.447903,41.008022
Blountville,United States,-82.406896,36.48742
Blue Ash,United States,-84.373777,39.2588215
Blue Bell,United States,-75.28241820000001,40.1512928
Blue Lake,United States,-123.9887,40.8809
Blue Springs,United States,-94.27783099999999,39.02082866666667
Bluefield,United States,-81.2436665,37.254977499999995
Bluefields,Nicaragua,-84.21061800000001,12.163795
Bluffton,United States,-83.898,40.896
Blumenau,Brazil,-49.108697,-26.893918499999998
Blyth,United Kingdom,-1.5216647500000002,55.13012725
Blythe,United States,-114.623968,33.637544000000005
Bnei Brak,Israel,34.83079875,32.08709975
Boa Vista,Brazil,-60.84047566666667,2.4910383333333335
Boardman,United States,-119.67196299999999,45.852707
Bobadela,Portugal,-9.09816,38.803425
Bobigny,France,2.394804666666667,48.92839966666667
Bobo-Dioulasso,Burkina Faso,-4.323231333333333,11.176017833333333
Boca Raton,United States,-80.11510799999999,26.37652635
Boca de Río,Venezuela,-64.18090500000001,10.963287
Bochnia,Poland,20.444662,49.9761065
Bocholt,Germany,6.613033000000001,51.842897
Bochum,Germany,7.23038016,51.46588748749999
Bochum-Hordel,Germany,,
Bockenem,Germany,10.127392,52.013249
Bodegraven,Netherlands,4.753512000000001,52.068428999999995
Boden,Sweden,21.718124,65.803881
Bodh Gaya,India,84.96526300000001,24.687215
Bodio,Switzerland,8.90991,46.37808
Bodmin,United Kingdom,-4.7414,50.4672
Bodø,Norway,14.536599857142859,67.36457164285716
Boecillo,Spain,-4.7172155,41.520128
Boekel,Netherlands,5.712007,51.589706
Boerne,United States,-98.738136,29.8038065
Bognor Regis,United Kingdom,-0.6738869999999999,50.788062499999995
Bogor,Indonesia,106.78781472727273,-6.576799818181818
Bogotá,Colombia,-74.07304739714283,4.674295737142857
Bogra,Bangladesh,89.34869,24.922985
Bohemia,United States,-73.09728100000001,40.771743
Bohumín,Czechia,18.35512,49.894928666666665
Bohušovice nad Ohří,Czechia,14.145948,50.496311
Boiling Springs,United States,-81.668141,35.24732
Bois-Colombes,France,2.260868,48.906862
Boisbriand,Canada,-73.86009166666666,45.63387
Boise,United States,-116.19566040540539,43.59378664864865
Bojkovice,Czechia,17.826275,49.042953999999995
Bojnourd,Iran,57.318893249999995,37.461993
Bojonegoro,Indonesia,111.923965,-7.1352649999999995
Bokkos,Nigeria,8.956747,9.371891
Boksburg,South Africa,28.282915999999997,-26.152055999999998
Bolatice,Czechia,18.081585999999998,49.952861
Bolechowice,Poland,16.976415,52.54950899999999
Bolinas,United States,,
Bolingbrook,United States,-88.09556239999999,41.6858114
Bolivar,United States,-93.406371,37.601043
Bolivia,United States,-73.17473100000001,8.762653499999997
Bollate,Italy,9.104528,45.535742
Bollnäs,Sweden,16.360865,61.354066
Bologna,Italy,11.30577817540984,44.524430183606555
Bolton,United Kingdom,-2.4473178333333334,53.57620016666667
Bolu,Turkey,31.5128,40.7142
Bolzano,Italy,11.089516545454545,46.40810318181818
Bom Jesus do Itabapoana,Brazil,-41.676010999999995,-21.136757
Bomdila,India,92.236876,27.357756
Bon Air,United States,-77.592285,37.511694
Bonao,Dominican Republic,-69.94874200000001,18.45901
Bondo,Kenya,34.258582000000004,-0.092234
Bondy,France,2.489576,48.909737
Bongaree,Australia,153.14275859999998,-27.0337271
Bonheiden,Belgium,4.559507,51.016652
Bonita Springs,United States,-81.804562,26.272189
Bonn,Germany,7.113777683962262,50.72065387075469
Bonne Terre,United States,-90.533073,37.913205
Bonney Lake,United States,,
Bonnyrigg,United Kingdom,-3.0900529999999997,55.880264000000004
Bontang,Indonesia,117.488281,0.131716
Bonāb,Iran,46.037859999999995,37.388482
Boone,United States,-84.136337,37.3920266
Booneville,United States,-88.56247900000001,34.667213000000004
Boonton,United States,-74.404143,40.903177
Boonville,United States,,
Boothbay,United States,-69.580011,43.859991
Boothbay Harbor,United States,-69.640451,43.843833000000004
Boothwyn,United States,-75.44126,39.830515999999996
Bootle,United Kingdom,-2.990881,53.4465685
Borama,Somalia,43.222272,9.947132
Borba,Portugal,-7.458388,38.807997
Bordeaux,France,-0.51695045,44.936032999999995
Bordentown,United States,-74.756341,40.078212
Bordj Bou Arreridj,Algeria,4.800476000000001,36.046878
Bordj el Kiffan,Algeria,3.178194,36.741294
Bordon,United Kingdom,-0.8800385,51.1089985
Borehamwood,United Kingdom,-0.262201,51.657651
Borgarnes,Iceland,-21.66085,64.66397799999999
Borger,United States,-101.405974,35.657005
Borgheim,Norway,10.387012,59.199849
Borgholzhausen,Germany,8.271777,52.09684
Borgo Maggiore,San Marino,12.455074,43.953503999999995
Borgo a Mozzano,Italy,10.514277,43.987136
Borgomanero,Italy,8.460606,45.704273
Borlänge,Sweden,15.43988225,60.4747645
Borna,Germany,12.50554,51.13425
Borne,Netherlands,6.75091,52.302307
Borok,Russia,38.239721,58.062501
Borongan,Philippines,125.44188799999999,11.660681
Borough of Queens,United States,-73.886368,40.744761
Borstel,Germany,10.193371,53.821268
Boryeong,South Korea,126.57931299999998,36.403806
Borås,Sweden,12.929454857142856,57.724649
Borūjerd,Iran,48.74307400000001,33.874832
Bosaso,Somalia,49.201944,11.242222
Bosisio Parini,Italy,9.251464,46.128394
Boskovice,Czechia,16.649410500000002,49.493847
Bossier City,United States,-93.67157366666667,32.535092
Boston,United Kingdom,-0.010129,52.991054000000005
Boston,United States,-71.08539449266866,42.352138994134926
Bostānābād,Iran,46.829202,37.846542
Botevgrad,Bulgaria,23.788147,42.906715000000005
Bothell,United States,-122.19461097857142,47.78661101428572
Bothwell,United Kingdom,-3.987224,55.946371
Botngård,Norway,9.633004,63.817724
Bottesford,United Kingdom,-0.8180270000000001,52.946636
Bottrop,Germany,6.917664,51.535498
Botucatu,Brazil,-48.44987337499999,-22.887916875
Bouaké,Ivory Coast,-5.0667485,7.6866275
Boucherville,Canada,-73.43920355555555,45.57586844444444
Bouguenais,France,-1.587314,47.165135
Boulder,United States,-105.39829280373833,40.00545422429905
Boulder City,United States,-115.07951550000001,36.075138499999994
Boulder Creek,United States,-122.122579,37.128257
Boulogne-Billancourt,France,2.2684487894736844,48.8154677368421
Boulogne-sur-Mer,France,,
Boumerdas,Algeria,3.472584,36.7613135
Bountiful,United States,-111.88373200000001,40.889988
Bourbonnais,United States,-87.8740055,41.161363
Bourg-en-Bresse,France,5.2440552,46.201054600000006
Bourg-la-Reine,France,2.441078,48.782070000000004
Bourges,France,2.395136,47.086155
Bourgtheroulde-Infreville,France,0.8854938,49.30764370000001
Bourne,United Kingdom,-0.264978,52.57071
Bourne,United States,-70.61386999999999,41.661699
Bourne End,United Kingdom,-0.70492,51.577127000000004
Bournemouth,United Kingdom,-1.848342875,50.738530749999995
Boutersem,Belgium,4.858537,50.832917
Bouïra,Algeria,3.8930870000000004,36.38207
Bovec,Slovenia,13.516238000000001,46.285013
Bovey Tracey,United Kingdom,-3.676075,50.592302000000004
Bowie,United States,-76.7685795,39.0155055
Bowling Green,United States,-85.16718281818181,38.971197000000004
Bowral,Australia,150.8155425,-34.176923
Bowraville,Australia,152.852196,-30.647875
Box Hill,Australia,145.114813,-37.814749
Boxberg,Germany,12.115181,50.432483
Boxmeer,Netherlands,5.938514,51.646899
Boxtel,Netherlands,5.32213185,51.592406100000005
Boyertown,United States,-75.568179,40.318606
Boynton Beach,United States,-80.11439949999999,26.52573333333333
Boyolali,Indonesia,110.58954399999999,-7.514938000000001
Bozeman,United States,-104.77827556206896,44.791369548275874
Bra,Italy,7.869136,44.6920515
Brackley,United Kingdom,-1.158052,52.031220000000005
Bracknell,United Kingdom,-0.7681055999999999,51.411084630000005
Bradenton,United States,-82.58813660000001,27.4666228
Bradford,United Kingdom,-1.7541663181818186,53.78997890909091
Bradford,United States,-78.672956,41.944174
Bradford-on-Avon,United Kingdom,-2.252675,51.347342
Bradley,United States,,
Braga,Portugal,-8.414834545454546,41.54310836363636
Bragança,Portugal,-6.768152000000001,41.796958000000004
Bragança Paulista,Brazil,-46.589243749999994,-22.959351750000003
Brahmapur,India,84.83930975,19.30699
Braine-l'Alleud,Belgium,4.405273,50.795227000000004
Braine-le-Château,Belgium,,
Brainerd,United States,-94.357477,46.69906766666667
Braintree,United Kingdom,0.540705,51.879833
Braintree,United States,-71.02125699999999,42.2181655
Bram,France,1.5397399999999999,49.634776
Bramhall,United Kingdom,-2.165033,53.35886800000001
Brampton,Canada,-79.7974517,43.699577500000004
Brampton,United Kingdom,-2.726783,54.939519
Bramsche,Germany,7.999519,52.399771
Brande,Denmark,9.110576,55.942424
Brandenburg,Germany,12.767251833333333,52.43022466666667
Brandon,Canada,-99.94209733333334,49.844309333333335
Brandon,United States,-82.289101,27.931451000000003
Brandywine,United States,-76.892576,38.86954
Brandýs nad Labem-Stará Boleslav,Czechia,14.657457999999998,50.1817975
Branford,United States,-72.770638275,41.297370525000005
Branson,United States,-93.2405,36.6181
Branston,United Kingdom,-0.476704,53.195914
Brantford,Canada,-80.2717065375,43.0829287125
Braník,Czechia,14.415896,50.027265
Brasov,Romania,25.583966500000002,45.659009
Brasschaat,Belgium,4.488611,51.297883
Brasília,Brazil,-48.40481180882353,-15.489311411764708
Brasília de Minas,Brazil,-47.920561000000006,-15.793332
Bratislava,Slovakia,17.13762903769634,48.15536418115185
Bratislava - Vajnory,Slovakia,17.08167875,48.14795025
Bratsk,Russia,101.759427,56.309562
Brattleboro,United States,-72.6253855,42.94340125
Brattvåg,Norway,6.445844,62.60452900000001
Braunschweig,Germany,10.516679592592592,52.31389014814815
Brawley,United States,-115.51972099999999,33.236363
Brazzaville,Republic of the Congo,15.25311325,-4.270549
Brea,United States,-117.87290820000001,33.91942
Brechin,United Kingdom,-2.61421,56.777003
Breckenridge,United States,,
Brecksville,United States,-81.64054499999999,41.293127
Brecon,United Kingdom,-3.246786,52.002549
Breda,Netherlands,4.817707688461538,51.64684415384616
Bredasdorp,South Africa,19.470499,-34.548912
Bredstedt,Germany,8.964869,54.61676
Bregenz,Austria,9.746137666666668,47.500724999999996
Breitenbach,Switzerland,7.543113000000001,47.405060999999996
Brekstad,Norway,9.663066,63.688514
Bremen,Germany,8.829673896666666,53.095099281666656
Bremerhaven,Germany,8.5862805,53.53544810000001
Bremerton,United States,-122.649615375,47.58852937500001
Brenham,United States,-96.40679499999999,30.161065
Brentwood,United Kingdom,0.3026433333333333,51.60893166666667
Brentwood,United States,-84.94844067272729,37.41767636363635
Brescia,Italy,10.229043352941176,45.535801
Bresso,Italy,9.1896585,45.5320275
Brest,Belarus,24.996886333333336,52.70860666666667
Brest,France,-4.488675111111111,48.37857461111111
Bretten,Germany,8.713550333333332,49.043144000000005
Breukelen,Netherlands,4.996653,52.168239
Brevard,United States,-82.74483833333333,35.22308433333334
Brewer,United States,-68.728524,44.770979
Brewster,United States,-70.116256,41.754766
Brewton,United States,-87.08641999999999,31.102729999999998
Brezno,Slovakia,19.543601000000002,48.808471000000004
Brezovica pri Ljubljani,Slovenia,14.404528500000001,46.0123145
Briarcliff Manor,United States,-73.812438,41.117067500000005
Brick Township,United States,-74.12595400000001,40.051317
Bridgend,United Kingdom,-3.5547347499999997,51.5057035
Bridgeport,United States,-73.79520975,41.05456041666666
Bridgeton,United States,,
Bridgetown,Barbados,-59.606393777777775,13.114020777777775
Bridgeview,United States,-87.759615,41.968664000000004
Bridgewater,United States,-74.69120210000001,40.507262000000004
Bridgnorth,United Kingdom,-2.421513,52.537748
Bridgton,United States,-70.70258299999999,44.067867
Bridgwater,United Kingdom,-2.99015375,51.137521750000005
Bridlington,United Kingdom,-0.216759,54.086838
Bridport,United Kingdom,-2.770057,50.741797999999996
Brienz,Switzerland,8.085649,46.74958
Brierley Hill,United Kingdom,-2.117854,52.4792285
Brig,Switzerland,7.85242025,46.476453
Brigantine,United States,-74.390946,39.395146999999994
Brigg,United Kingdom,-0.491691,53.551828
Brigham City,United States,-112.02131266666667,41.510026
Brighton,United Kingdom,-0.1277498,50.836192200000006
Brighton,United States,-84.83359060000001,42.52316
Brighton East,Australia,,
Brighton-Le-Sands,Australia,151.153701,-33.960609999999996
Brignais,France,4.768737000000001,45.68657
Briis-sous-Forges,France,2.1269669999999996,48.62441
Brimfield,United States,-72.204962,42.12165
Brindisi,Italy,17.91459,40.6241
Brinkley,United States,-91.14447833333334,34.87416466666667
Brisbane,Australia,153.01637365696203,-27.470765617721526
Brisbane,United States,-122.39211900000002,37.677711
Bristol,United Kingdom,-2.5671519317073175,51.48061927804876
Bristol,United States,-76.8512739,39.346695000000004
Brixen,Italy,11.647641,46.724382
Brixham,United Kingdom,-3.51413,50.389677
Brno,Czechia,16.54621268518517,49.20103152777776
Broadmeadows,Australia,144.949043,-37.821824
Broadview,United States,-87.84123449999998,41.8612555
Brockenhurst,United Kingdom,-1.569704,50.822014
Brockley,United Kingdom,-0.309176,51.630717
Brockport,United States,-77.950733,43.210065
Brockton,United States,-71.00898466666668,42.088636
Brockville,Canada,-75.75716249999999,44.9835745
Broderstorf,Germany,12.2573,54.089107999999996
Brodheadsville,United States,-75.407584,40.928433
Broken Arrow,United States,-95.819311,36.074337
Broken Hill,Australia,141.4616088,-31.951488499999996
Bromma,Sweden,17.733730384615384,59.15931092307692
Bromont,Canada,-72.73120899999999,45.250344
Bromsgrove,United Kingdom,-2.029349,52.339197999999996
Bromyard,United Kingdom,-2.506916,52.186491
Bron,France,4.907201222222223,45.74015927777778
Bronxville,United States,-73.83474000000001,40.938280000000006
Brookfield,United States,-84.396272875,42.514611875
Brookhaven,United States,-72.962779,40.763151
Brookings,United States,-96.77683239999999,44.310477
Brookline,United States,-71.12591088235294,42.33406147058823
Brooklyn,United States,-74.13576524731184,40.67207506451612
Brooklyn Center,United States,-93.332114,45.07721
Brooklyn Park,United States,-93.39063533333332,45.09623333333334
Brooksville,United States,-82.479811,28.5079685
Brookville,United States,-73.5891,40.818465
Broomall,United States,-75.343969,39.9642065
Broome,Australia,122.24039099999999,-17.954394
Broomfield,United States,-105.10768250000001,39.92165464285715
Brossard,Canada,-73.46214359999999,45.4534364
Brotas,Brazil,,
Broumov,Czechia,16.335552500000002,50.581004
Broussard,United States,-91.973373,30.166559000000003
Browning,United States,-113.341162,48.6745095
Browns Mills,United States,-74.585651,39.976409000000004
Brownsburg,United States,-85.67400500000001,38.883077
Brownsville,United States,-94.49643300000001,31.80802566666667
Brownwood,United States,-98.98700000000001,31.715999999999998
Broxburn,United Kingdom,-3.5523569999999998,55.919982999999995
Bruchsal,Germany,8.02926,49.718795
Bruges,Belgium,3.2217083333333334,51.203283
Brugg,Switzerland,8.209622,47.482935
Brugherio,Italy,9.284407,45.548976
Bruhagen,Norway,7.5748715,63.0659505
Brummen,Netherlands,6.134664,52.07482
Brumovice,Czechia,17.8273,49.9780215
Brumunddal,Norway,10.938019,60.882135999999996
Bruneck,Italy,11.936625,46.800348
Brunnthal,Germany,11.665035000000001,48.041616
Brunoy,France,2.356419,48.844373
Brunssum,Netherlands,5.980059,50.952844
Brunswick,United States,-74.74239683333333,38.61571741666667
Bruntál,Czechia,17.462889,49.988452
Brush,United States,-103.649476,40.255675
Brusque,Brazil,-48.885158000000004,-27.066881
Brussels,Belgium,4.379611590112363,50.84111763483146
Bruyères-le-Châtel,France,2.202622,48.595321999999996
Bruz,France,-1.7435457142857143,48.04653785714286
Bruzolo,Italy,,
Brušperk,Czechia,18.218678,49.703582
Bry-sur-Marne,France,2.3504099999999997,48.875758000000005
Bryan,United States,-93.71219888888889,33.05487733333333
Bryansk,Russia,34.30383571428572,53.25433599999999
Bryn Athyn,United States,-75.066652,40.1483245
Bryn Mawr,United States,-75.3219365,40.02183283333333
Bryne,Norway,5.649424833333334,58.7362215
Brzeziny,Poland,19.750344000000002,51.797178
Brøndby,Denmark,12.434308857142856,55.66425542857143
Brønnøysund,Norway,12.169969666666667,65.44891866666667
Brügg,Switzerland,7.263591,47.120778
Brühl,Germany,6.9048532499999995,50.835286749999995
Brüttisellen,Switzerland,8.629062999999999,47.4194285
Bubendorf,Switzerland,7.731683,47.4423615
Bubwith,United Kingdom,-0.916256,53.818563
Buc,France,2.123239,48.765172
Bucaramanga,Colombia,-73.2379109090909,7.121379454545456
Buccino,Italy,16.226371,39.358678999999995
Buchanan,United States,-82.006268,37.212694
Bucharest,Romania,26.085816385849064,44.44599820566035
Bucheon-si,South Korea,126.7937406,37.490325
Buchholz in der Nordheide,Germany,,
Buchlovice,Czechia,17.352058500000002,49.078458499999996
Buchs,Switzerland,9.005077333333332,47.247842
Buckfastleigh,United Kingdom,-3.7786800000000005,50.492521
Buckhannon,United States,-80.21751400000001,38.990654
Buckhurst Hill,United Kingdom,0.032211000000000004,51.6243289
Buckie,United Kingdom,-2.980559,57.668645
Buckingham,United Kingdom,-0.9386435714285714,51.952553
Buckingham,United States,-78.347352,37.681788
Bucksport,United States,-68.795434,44.572340000000004
Bucuresti,Romania,26.09844404166667,44.44261212500001
Bucureşci,Romania,26.13795,44.406159
Buda,United States,-97.84881899999999,30.091119999999997
Budakalász,Hungary,19.04709,47.62048
Budakeszi,Hungary,18.919055,47.519573
Budapest,Hungary,19.028349129963907,47.498516243321305
Budaörs,Hungary,18.936183,47.457417
Budd Lake,United States,,
Bude,United Kingdom,-4.517775,50.830537
Buderim,Australia,153.0547554,-26.685705849999998
Budišov nad Budišovkou,Czechia,17.614928,49.796796
Budleigh Salterton,United Kingdom,-3.3270493333333335,50.64686966666667
Buea,Cameroon,9.274845666666666,4.155198666666667
Buellton,United States,-120.2019885,34.610473
Buena,United States,-74.904039,39.492216
Buena Park,United States,-118.016257,33.8441115
Buena Vista,United States,-92.738535,38.281057499999996
Buenaventura,Colombia,-121.313029,37.979853000000006
Buenos Aires,Argentina,-58.454337073611086,-34.669912302083326
Buffalo,United States,-78.83785672000002,42.92199322000001
Buffalo Grove,United States,-87.960064575,42.187584025
Buhera,Zimbabwe,31.652352,-19.258157
Buies Creek,United States,-78.7403,35.4099
Buikwe,Uganda,32.782773999999996,0.5239189999999999
Builth Wells,United Kingdom,-3.406793,52.160748999999996
Bujumbura,Burundi,29.42451609090909,-3.385853818181818
Bukavu,Democratic Republic of the Congo,28.73202585714286,-2.4339067142857145
Bukhara,Uzbekistan,64.4228455,39.76678
Bukittinggi,Indonesia,100.370012,-0.285423
Bukowiec,Poland,19.667068,51.690944
Bulandshahr,India,77.710858,28.336569
Bulawayo,Zimbabwe,28.50779083333333,-19.95647166666667
Bulle,Switzerland,7.035906,46.622246999999994
Bunbury,Australia,115.63835,-33.327399
Bundaberg,Australia,152.35861200000002,-24.888014000000002
Bundanoon,Australia,150.3012,-34.652586
Bundoora,Australia,145.072584,-37.704291
Bungay,United Kingdom,1.436544,52.456557999999994
Bungoma,Kenya,34.545649000000004,0.589846
Bunia,Democratic Republic of the Congo,30.24512,1.5535649999999999
Bunnell,United States,-81.266541,29.491559999999996
Bunnik,Netherlands,5.2366914,52.082293400000005
Buntingford,United Kingdom,0.034502,51.935862
Buraidah,Saudi Arabia,43.872955000000005,26.3628475
Buraimi,Oman,55.835593,24.236081499999997
Burao,Somalia,45.535962,9.529651
Burbank,United States,-118.32436114285713,34.18057128571428
Burdur,Turkey,30.27163,37.714358000000004
Bures-sur-Yvette,France,2.1720725,48.696957499999996
Burgas,Bulgaria,27.4567225,42.4660035
Burgau,Germany,10.406469,48.435441
Burgaw,United States,,
Burgdorf,Switzerland,7.6242790000000005,47.049101
Burgersdorp,South Africa,26.072444,-31.149410500000002
Burgess Hill,United Kingdom,-0.142969,50.9546215
Burghaslach,Germany,10.604951,49.734978999999996
Burghaun,Germany,9.724099,50.700617
Burghausen,Germany,12.84074,48.168471999999994
Burglengenfeld,Germany,12.044239,49.208936
Burgos,Spain,-3.69975695,42.352648775
Burgstall,Italy,,
Burien,United States,-122.3308245,47.5615885
Buriram,Thailand,103.10003499999999,14.990438000000001
Burke,United States,-77.297844,38.789654999999996
Burleigh Waters,Australia,153.440652,-28.097355
Burlingame,United States,-122.3627530769231,37.61365084615385
Burlington,Canada,-79.77903683333334,43.40518811111111
Burlington,United States,-73.45819160465116,42.95737062790697
Burnaby,Canada,-122.98919676086953,49.28709395652174
Burnham-on-Sea,United Kingdom,-2.9941880000000003,51.239053000000006
Burnie,Australia,145.8818,-41.0471
Burnley,United Kingdom,-2.2418876666666665,53.80079666666666
Burnopfield,United Kingdom,-1.7299509999999998,54.898065
Burns,United States,-118.984828,43.4128905
Burnsville,United States,-93.272446,44.749058000000005
Burntisland,United Kingdom,-3.236446,56.057131000000005
Burr Ridge,United States,-87.91335933333333,41.758780333333334
Bursa,Turkey,29.049718,40.19613999999999
Burscheid,Germany,7.100714,51.085351
Burswood,Australia,115.783898,-31.9827
Burton,United States,-81.14290799999999,41.484105
Burton-on-Trent,United Kingdom,-1.705426,52.78596916666667
Burtonsville,United States,-76.930984,39.1059535
Bury,United Kingdom,-2.286598,53.59348500000001
Bury St Edmunds,United Kingdom,0.7132584,52.2221812
Busan,South Korea,129.06188103333335,35.19233693333334
Bushenyi,Uganda,30.137778000000004,-0.544445
Bushey,United Kingdom,-0.4246775,51.600122999999996
Busnago,Italy,,
Bussolengo,Italy,10.865075,45.448240000000006
Bussum,Netherlands,5.15421275,52.273954749999994
Busto Arsizio,Italy,8.847380666666666,45.62423799999999
Butare,Rwanda,29.739186,-2.6134245
Butembo,Democratic Republic of the Congo,29.283457000000002,0.129304
Butler,United States,-79.97507949999999,40.762558999999996
Butte,United States,-112.53352757142855,46.02456328571428
Butterworth,South Africa,28.22822,-32.419474
Buttigliera Alta,Italy,,
Buttrio,Italy,13.33705,46.01828
Butuan,Philippines,125.5693645,8.9522905
Buxtehude,Germany,9.6987738,53.467681999999996
Buxton,United Kingdom,-1.989364857142857,53.47203357142858
Buyeo,South Korea,126.89691300000001,36.308982
Buzau,Romania,26.805155,45.149389
Buzzards Bay,United States,-70.62435699999999,41.739939
Buštěhrad,Czechia,14.180908,50.156258
Byblos,Lebanon,35.694336,34.14611
Bydgoszcz,Poland,18.01299633333333,53.12477891666666
Byfleet,United Kingdom,-0.47994899999999996,51.347597
Byron,United States,-89.256479,42.126834
Bystřice,Czechia,16.913099000000003,49.656915999999995
Bystřice pod Hostýnem,Czechia,17.671067,49.397785
Bytom,Poland,18.9117975,50.340824500000004
Bytča,Slovakia,18.553778,49.217059000000006
Byurakan,Armenia,44.269633,40.330441
Bzenec,Czechia,17.300904,48.984071
Bègles,France,-0.543665,44.81792
Bécancour,Canada,-72.376416,46.385233
Béchar,Algeria,-2.2328200000000002,31.604238
Béjaïa,Algeria,5.040857,36.755458000000004
Béthune,France,2.652926933333333,50.53112083333334
Béziers,France,3.254181,43.341158
Bílovec,Czechia,18.02019,49.760828000000004
Böblingen,Germany,9.005569714285715,48.68409357142857
Bönnigheim,Germany,9.117308,49.039328999999995
Bø,Norway,9.169844,59.4182835
Büchenbeuren,Germany,7.252214,49.925990999999996
Büdingen,Germany,,
Bühl,Germany,8.177200500000001,48.689576
Bürglen,Switzerland,7.1716050000000005,46.801235999999996
Bützow,Germany,12.001719999999999,53.828216000000005
Büyükçekmece,Turkey,28.500186,41.056262
Bābolsar,Iran,52.646133999999996,36.699644
Bāmyān,Afghanistan,67.833985,34.804469
Bānka,India,87.0044425,25.244405
Bānkura,India,87.037529,23.23385
Bārākpur,India,88.38149049999998,22.77026
Bălţi,Moldova,27.921251,47.754515000000005
Bīr Zayt,Palestinian Territory,35.180706,31.958692
Błonie,Poland,20.64251,52.233265
Břasy,Czechia,13.581150999999998,49.8354975
Břeclav,Czechia,16.787901166666668,48.8308075
Březnice,Czechia,13.961053,49.560371999999994
Březno,Czechia,15.002711999999999,50.4151295
Březová,Czechia,17.821304,49.782944
Břidličná,Czechia,,
Būkān,Iran,46.199943,36.487956
Bū’īn Zahrā,Iran,50.0760655,35.7595225
Bắc Ninh,Vietnam,106.02048,21.144271
Cabanatuan City,Philippines,120.939006,15.448625
Cabariot,France,-0.858867,45.920677000000005
Cabimas,Venezuela,-71.51785100000001,10.675464999999999
Cabitan,Philippines,123.324579,12.255887
Cabo Frio,Brazil,-42.062948999999996,-22.885291
Caboolture,Australia,152.835451,-26.541272999999997
Cabudare,Venezuela,-69.270891,10.025385
Cabuyao,Philippines,121.112637,14.243965
Cachan,France,2.3272016666666664,48.78968222222223
Cache,United States,-98.633398,34.625959
Cachoeirinha,Brazil,-47.765879,-6.114408
Cacoal,Brazil,-61.437245999999995,-11.44537
Cadempino,Switzerland,8.930057000000001,46.032427
Cadillac,United States,-85.40037099999999,44.251319
Cadiz,Spain,-6.2213336,36.5517526
Cadolzburg,Germany,10.883080999999999,49.464298
Caen,France,-0.3676793307692308,49.200149630769225
Caerleon,United Kingdom,-2.964271,51.613768
Caerphilly,United Kingdom,-3.2352673333333333,51.60076633333333
Caesarea,Israel,34.9339805,32.500586
Cagayan de Oro,Philippines,124.652134,8.483500999999999
Cagliari,Italy,9.1153605,39.235417
Caguas,United States,-66.0382975,18.228113
Caher,Ireland,-7.917471000000001,52.377835
Cahors,France,1.428084,44.469177
Cahul,Moldova,,
Cairns,Australia,145.75207220000001,-16.8984002
Cairo,Egypt,31.41754538759689,30.046918813953482
Cairo,United States,-84.179722,30.885902
Cajamar,Brazil,-46.8349745,-23.364337
Cajamarca,Peru,-78.50551100000001,-7.1614070000000005
Cajati,Brazil,-48.107081,-24.725407
Calabar,Nigeria,8.335431,4.9419875
Calabasas,United States,-118.66822814285715,34.14646942857143
Calahorra,Spain,,
Calais,United States,-67.243,45.166000000000004
Calbayog City,Philippines,124.596681,12.071477
Calceta,Ecuador,-80.186284,-0.826383
Caldas,Colombia,-75.63892,6.099957
Caldas da Rainha,Portugal,-9.105027,39.381947
Caldicot,United Kingdom,-2.756996,51.5900175
Caldwell,United States,-102.58781833333335,42.69939366666667
Caledonia,United States,,
Calella,Spain,2.657357,41.614946
Calenzano,Italy,11.177829,43.853737
Calexico,United States,-115.492522,32.673352
Calgary,Canada,-114.13819193253973,51.03702679365079
Calhoun,United States,-84.926283,34.510426
California,United States,-77.634636,38.888574
California City,United States,-121.69919616666668,37.571516333333335
Callao,Peru,-77.13361175,-12.052859
Callington,United Kingdom,-4.514551333333333,50.50008833333334
Calmar,United States,-91.865402,43.163458
Caloc-an,Philippines,121.02055333333334,14.722150666666666
Caluire-et-Cuire,France,4.8382112,45.78509995
Calumet City,United States,-87.53513199999999,41.618712
Calverton,United States,-76.9400885,39.0510595
Calw,Germany,8.739571,48.714289
Camagüey,Cuba,-77.934147,21.386481
Camaiore,Italy,10.223991,43.914276
Camarillo,United States,-118.96609577777778,34.174920111111106
Camas,United States,-122.4608,45.59324
Camberley,United Kingdom,-0.7623755999999999,51.3308172
Camberwell,Australia,145.0647594,-37.8380352
Cambiano,Italy,7.7658320000000005,44.969097999999995
Cambourne,United Kingdom,-0.073017,52.220417999999995
Cambridge,Australia,147.483365,-42.830581
Cambridge,Canada,-80.31629258333335,43.385759
Cambridge,United Kingdom,-1.7301016712328767,51.92501622831051
Cambridge,United States,-71.53286583263151,42.34694872736841
Cambuí,Brazil,-47.047675,-22.896395000000002
Camden,United States,-75.53658084615385,40.10866638461539
Camelford,United Kingdom,-4.682722,50.623712
Cameri,Italy,,
Camerino,Italy,13.068611,43.135833
Cameron Park,United States,,
Camerton,United Kingdom,-2.4539590000000002,51.314838
Camilla,United States,-84.214646,31.241938
Camp Hill,United States,-76.904155,40.2635065
Campbell,United States,-121.94893842857144,37.28115942857143
Campbell River,Canada,-125.2408418,50.0250624
Campbellsville,United States,-85.342791,37.3552995
Campbelltown,Australia,146.76673266666668,-34.346471333333334
Campeche,Mexico,-90.56290933333332,19.816005666666666
Camperdown,Australia,151.15471684444444,-33.892610555555564
Campina Grande,Brazil,-35.920635399999995,-7.2172022
Campinas,Brazil,-47.06385771910114,-22.87048775280898
Campo Grande,Brazil,-54.60610549999999,-20.456771333333332
Campo Limpo Paulista,Brazil,-46.77728,-23.210404999999998
Campobasso,Italy,14.665582333333333,41.55732033333333
Campos dos Goytacazes,Brazil,-41.291453000000004,-21.761537
Can Tho,Vietnam,105.768775,10.032111
Canaan,United States,,
Canals,Spain,,
Canandaigua,United States,-77.2768145,42.895583
Cananéia,Brazil,-47.926935,-25.006283
Canberra,Australia,148.53669327599644,-34.89044658574474
Cancún,Mexico,-86.83466466666668,21.134223
Candiac,Canada,,
Candiolo,Italy,7.567128,44.966224
Canfranc,Spain,-0.5164529999999999,42.749277
Cangas del Narcea,Spain,-6.5417309999999995,43.165787
Cangshan,China,119.294647,26.067381
Cangzhou,China,116.82235833333334,38.30492466666667
Canmore,Canada,-115.3561875,51.090939500000005
Cannanore,India,75.43669599999998,11.872272500000001
Cannes,France,6.9827115,43.5574825
Cannock,United Kingdom,-2.0278108,52.6915724
Canoas,Brazil,-51.170978999999996,-29.902025000000002
Canoga Park,United States,-118.57470900000001,34.212933
Canonsburg,United States,-80.16595233333334,40.274791666666665
Canso,Canada,-60.994580000000006,45.336601
Cantanhede,Portugal,-8.578904,40.3601466
Canterbury,Australia,145.07359,-37.821402
Canterbury,United Kingdom,1.079493260869565,51.26185195652174
Canterbury,United States,-71.49,43.358889000000005
Canton,United States,-82.0951782857143,40.381286714285714
Canyon,United States,-101.9154395,34.982397500000005
Cao Lanh,Vietnam,105.6454255,10.4465195
Cap-Haïtien,Haiti,-72.36036700000001,19.698794
Caparica,Portugal,-9.199663000000001,38.6641214
Cape Canaveral,United States,-80.60499166666666,28.39676733333333
Cape Coast,Ghana,-1.2808765,5.128654
Cape Coral,United States,-81.94064499999999,26.640722999999998
Cape Girardeau,United States,-89.54668233333332,37.30993433333333
Cape May,United States,,
Cape Town,South Africa,18.562803704225356,-32.82797338028168
Capelle aan den IJssel,Netherlands,4.57253485,51.939011175
Capitol Heights,United States,-76.942662,38.864295
Capitola,United States,-121.95549299999999,36.981962
Capivari,Brazil,-47.526406,-23.0116
Captain Cook,United States,-155.913544,19.490776999999998
Capua,Italy,14.180029000000001,41.121437
Caracas,Venezuela,-67.04014433333333,10.402747727272725
Caraguatatuba,Brazil,-45.379544,-23.613191
Carasco,Italy,,
Caratinga,Brazil,-42.134837,-19.749182
Carbondale,United States,-88.81192411111113,37.548405111111116
Carbonera,Italy,12.286077,45.732597
Carbonia,Italy,8.506886,39.186668
Cardiff,United Kingdom,-3.1880769539682543,51.49886253809525
Cardigan,United Kingdom,-4.667274,52.070624
Cardston,Canada,-113.33425600000001,49.253009999999996
Carefree,United States,-111.909378,33.824073999999996
Caribou,United States,-68.008038,46.879857
Carignan,France,5.147226,49.648544
Carindale,Australia,153.102083,-27.503152000000004
Caringbah,Australia,151.113974,-34.037211
Carl Junction,United States,-94.554346,37.176157
Carlinville,United States,-89.877396,39.28861
Carlisle,United Kingdom,-2.9302583444444443,54.77762178888889
Carlisle,United States,-77.17769326666667,40.212809400000005
Carlow,Ireland,-6.922556374999999,52.8413372125
Carlsbad,United States,-116.89894277777779,33.25058861111111
Carlton,Australia,144.96553882352939,-37.80199170588236
Carlton North,Australia,144.9684165,-37.795415500000004
Carmarthen,United Kingdom,-4.26556325,51.8567995
Carmel,United States,-85.32759807692307,40.00331015384615
Carmel Valley Village,United States,-121.730098,36.494792
Carmel-by-the-Sea,United States,-121.89618300000001,36.543834999999994
Carmichael,United States,-121.3244775,38.648070000000004
Carnaxide,Portugal,-9.19799015,38.73791275
Carnegie,United States,-98.58478000000001,35.218313
Carol Stream,United States,-88.12190000000001,41.911112
Carolina,United States,-65.987176,18.4042555
Carouge,Switzerland,6.142493525,46.18352982500001
Carpi,Italy,,
Carpinteria,United States,-119.556318,34.413305
Carquefou,France,-1.490253,47.298192
Carrara,Italy,10.0992,44.0782
Carrboro,United States,-79.07556613333334,35.916708
Carrick on Shannon,Ireland,-8.094192999999999,53.945345999999994
Carrickfergus,United Kingdom,-5.7995470000000005,54.717891
Carrigaline,Ireland,-8.366992999999999,51.809263
Carrizo Springs,United States,-99.85812299999999,28.524652000000003
Carroll,United States,-94.881551,42.07758
Carrollton,United States,-90.97727199999999,33.245034499999996
Carros,France,7.2099905,43.7818415
Carrum Downs,Australia,145.17332499999998,-38.0934635
Carson,United States,-118.2567865,33.83337475
Carson City,United States,-119.75861050000002,39.1780175
Cartagena,Colombia,-75.52177422222222,10.413424444444445
Cartagena,Spain,-0.9723926666666666,37.60509733333333
Cartago,Costa Rica,-83.909798,9.854098
Cartersville,United States,-84.789411,34.159523
Carterville,United States,-89.070673,37.7407385
Carthage,United States,-94.363112,33.829622
Caruaru,Brazil,-35.9593365,-8.278730500000002
Carver,United States,-70.79277400000001,41.9040215
Cary,United States,-78.7888945904762,35.787454980952376
Casa Grande,United States,-111.75477000000001,32.878065
Casablanca,Morocco,-7.51808414814815,33.58490553703704
Casale Monferrato,Italy,8.456348,45.150915000000005
Casalecchio di Reno,Italy,11.259774,44.486426
Casamassima,Italy,16.391409,41.298272
Cascais,Portugal,-9.439541,38.6989
Cascavel,Brazil,-53.4786045,-24.966761499999997
Cascina,Italy,10.541406,43.64370066666667
Caseros,Argentina,-58.56436600000001,-34.605027
Caserta,Italy,14.331179999999998,41.068133
Cashmere,United States,-120.465452,47.518041
Caslano,Switzerland,8.878730000000001,45.975505
Casper,United States,-106.31901583333332,42.85285616666667
Casselberry,United States,-81.344329,28.664834000000003
Cassine,Italy,,
Cassino,Italy,13.827129,41.4904565
Cassis,France,5.532498,43.21396
Cassopolis,United States,-85.97299699999999,41.951674
Castanet-Tolosan,France,1.505682142857143,43.52425085714285
Castel Gandolfo,Italy,12.650556,41.747222
Castelfranco Veneto,Italy,11.929861,45.675596000000006
Castelfranco di Sotto,Italy,10.76416,43.700603
Castell'Arquato,Italy,,
Castellamonte,Italy,,
Castellanza,Italy,8.904469,45.610194
Castelldefels,Spain,1.976261,41.280015
Castelló de la Plana,Spain,-0.08301833333333333,39.93274288888889
Castelnau-de-Lévis,France,2.075228,43.938404999999996
Castelnuovo Bocca d'Adda,Italy,9.204827,45.649387
Castelo Branco,Portugal,-7.4952309999999995,39.8208975
Castelvenere,Italy,14.853532000000001,41.067201000000004
Castine,United States,-68.803333,44.388333
Castle Donington,United Kingdom,-1.314054,52.82657
Castle Rock,United States,-104.901055,39.426901
Castlebar,Ireland,-9.299863,53.85457133333333
Castleford,United Kingdom,-1.3593475000000002,53.712531
Castlegar,Canada,-117.602858,49.351001999999994
Castlemaine,Australia,144.216277,-37.063709
Castleton,United States,-73.18,43.607
Castleton-on-Hudson,United States,-73.683881,42.577515999999996
Castletown,Isle of Man,-4.637951,54.086825
Castres,France,2.2667895,43.563076
Castricum,Netherlands,4.672559,52.548596499999995
Castries,France,3.9679279999999997,43.671960999999996
Castries,Saint Lucia,-60.9925215,14.00716525
Castro Valley,United States,-122.090799,37.707461
Castro Verde Municipality,Portugal,-7.978128,37.575163
Castrop-Rauxel,Germany,7.3020000000000005,51.581247999999995
Castroville,United States,-121.78786299999999,36.802181
Catanduva,Brazil,-48.974438,-21.131922666666664
Catania,Italy,14.750425722222225,37.94753394444445
Catanzaro,Italy,16.57533575,38.9050785
Catarman,Philippines,124.664796,12.509489
Catbalogan,Philippines,124.88586000000001,11.77117
Catcliffe,United Kingdom,-1.3728656666666668,53.388328333333334
Caterham,United Kingdom,-0.07629666666666667,51.27702366666667
Catia La Mar,Venezuela,,
Catonsville,United States,-76.714093,39.249666999999995
Catskill,United States,-73.861944,42.225833
Catterick Garrison,United Kingdom,,
Cattolica,Italy,12.735743,43.952327000000004
Caulfield,Australia,145.023093,-37.879703000000006
Caulfield South,Australia,145.01397466666666,-37.89230933333334
Caux,Switzerland,6.928083,46.487246
Cavaillon,France,5.032999,43.8456665
Cavan,Ireland,-7.371225,54.001315000000005
Cave Creek,United States,-111.953519,33.749625
Cavenago di Brianza,Italy,9.403911,45.58313
Cavite,Philippines,120.996532,14.284728
Cawood,United Kingdom,-1.152139,53.825244999999995
Caxias do Sul,Brazil,-51.102654666666666,-28.94201
Cayenne,French Guiana,-52.31986966666667,4.929251
Cayey,United States,-66.161622,18.118271
Cayon,Saint Kitts and Nevis,-62.735991000000006,17.35999
Cayuga Heights,United States,-76.696512,42.744314
Cazenovia,United States,-75.854105,42.933040000000005
Caçador,Brazil,-50.40830345,-26.455143550000003
Cebu City,Philippines,123.89984323076925,10.306574461538464
Ceccano,Italy,13.325757999999999,41.570102
Cedar City,United States,-113.0709995,37.669792
Cedar Falls,United States,-92.463176,42.5135315
Cedar Rapids,United States,-91.66194485714287,42.02804842857143
Cedarburg,United States,-87.98955500000001,43.297604
Cedarhurst,United States,-73.730023,40.620273
Cedarville,United States,-83.811123,39.742927
Ceduna,Australia,133.680689,-32.123248499999995
